{"448":{"lat":52.5122262,"lon":13.495272,"location_name":"Bioladen NaturPur","closed_days":["7"],"address":{"street":"Frankfurter Allee 231","city":"Berlin-Lichtenberg","zip":"10365"},"items":[{"id":58,"name":"Lukas","short_desc":"Bakfiets Trike Wide mit 2 Kinderb\u00e4nken","link":"http:\/\/localhost\/cb-items\/lukas\/","thumbnail":"http:\/\/localhost\/wp-content\/uploads\/2018\/01\/Lukas-150x150.jpg","status":"publish","terms":[25,71,11,20,162,132,18,27,60],"timeframes":[{"date_start":"2018-01-06","date_end":"2023-01-31"}],"timeframe_hints":[]}]},"1068":{"lat":52.4901185,"lon":13.4488498,"location_name":"Fahrradpraxis J\u00fcrgen Albrecht","closed_days":["1","7"],"address":{"street":"Karl-Kunger-Str. 21","city":"Berlin-Alt-Treptow","zip":"12435"},"items":[{"id":79,"name":"Walter","short_desc":"PFAU-Tec Jumbo (ohne Kinderbank)","link":"http:\/\/localhost\/cb-items\/walter\/","thumbnail":"http:\/\/localhost\/wp-content\/uploads\/2018\/01\/Walter-150x150.jpg","status":"publish","terms":[11,20,111,132,23,27,73,57],"timeframes":[{"date_start":"2018-04-03","date_end":"2023-01-31"}],"timeframe_hints":[]},{"id":80,"name":"Inge","short_desc":"Bakfiets Trike Wide mit 2 Kinderb\u00e4nken","link":"http:\/\/localhost\/cb-items\/inge\/","thumbnail":"http:\/\/localhost\/wp-content\/uploads\/2017\/12\/Inge-150x150.jpg","status":"publish","terms":[71,11,20,111,132,18,23,27,149,57],"timeframes":[{"date_start":"2018-04-03","date_end":"2023-01-31"}],"timeframe_hints":[]}]},"847":{"lat":52.4935091,"lon":13.3948364,"location_name":"Bilder-Buch-Laden","closed_days":["7"],"address":{"street":"Zossener Str. 6","city":"Berlin-Kreuzberg","zip":"10961"},"items":[{"id":1109,"name":"Ali","short_desc":"Zonix Cargo Trike mit einer Kinderbank.","link":"http:\/\/localhost\/cb-items\/ali\/","thumbnail":"http:\/\/localhost\/wp-content\/uploads\/2018\/03\/Ali-150x150.jpg","status":"publish","terms":[11,166,20,158,18,27,73,30,57],"timeframes":[{"date_start":"2018-08-21","date_end":"2023-01-31"}],"timeframe_hints":[]},{"id":844,"name":"Lisbeth","short_desc":"PedalPower Long Harry einspurig","link":"http:\/\/localhost\/cb-items\/lisbeth\/","thumbnail":"http:\/\/localhost\/wp-content\/uploads\/2018\/02\/lisbeth1-150x150.jpg","status":"publish","terms":[15,166,20,158,94,27,72,26,57],"timeframes":[{"date_start":"2018-07-30","date_end":"2023-01-31"}],"timeframe_hints":[]}]},"1635":{"lat":52.4742264,"lon":13.3287012,"location_name":"Buchhandlung Zauberberg","closed_days":["7"],"address":{"street":"Bundesallee 133","city":"Berlin-Friedenau","zip":"12161"},"items":[{"id":1634,"name":"Frieda","short_desc":"Bakfiets CargoTrike Classic Wide mit 2 Kinderb\u00e4nken","link":"http:\/\/localhost\/cb-items\/frieda\/","thumbnail":"http:\/\/localhost\/wp-content\/uploads\/2018\/06\/Frieda-150x150.jpg","status":"publish","terms":[25,71,11,20,161,134,18,27,88,59],"timeframes":[{"date_start":"2018-06-11","date_end":"2023-01-31"}],"timeframe_hints":[]}]},"1648":{"lat":52.4182444,"lon":13.4360555,"location_name":"BENN Buckow","closed_days":["1","3","5","6","7"],"address":{"street":"Christoph-Ruden-Str. 5","city":"Berlin-Buckow","zip":"12349"},"items":[{"id":1645,"name":"Benno","short_desc":"PedalPower Lastendreirad mit Deckel (ohne Kinderbank)","link":"http:\/\/localhost\/cb-items\/benno\/","thumbnail":"http:\/\/localhost\/wp-content\/uploads\/2018\/06\/Benno-1-150x150.jpg","status":"publish","terms":[37,11,90,20,165,158,27,72,59],"timeframes":[{"date_start":"2018-06-19","date_end":"2021-11-18"}],"timeframe_hints":[{"type":"until","timestamp":1637193600}]}]},"1828":{"lat":52.5428018,"lon":13.4413712,"location_name":"Alnatura Prenzlauer Berg","closed_days":["7"],"address":{"street":"Greifswalder Str. 89","city":"Berlin-PrenzlBerg","zip":"10409"},"items":[{"id":1825,"name":"Tilo","short_desc":"Bakfiets Bike long mit 1 Kinderbank ","link":"http:\/\/localhost\/cb-items\/tilo\/","thumbnail":"http:\/\/localhost\/wp-content\/uploads\/2018\/06\/Tilo-150x150.jpg","status":"publish","terms":[43,71,15,20,168,152,18,27,61,57],"timeframes":[{"date_start":"2018-07-10","date_end":"2023-01-31"}],"timeframe_hints":[]}]},"1836":{"lat":52.55891537689013,"lon":13.378762006759645,"location_name":"QM Soldiner Stra\u00dfe","closed_days":["6","7"],"address":{"street":"Koloniestr. 129","city":"Berlin-Wedding","zip":"13359"},"items":[{"id":1837,"name":"Soldini","short_desc":"3r\u00e4driges AKI Lastenfahrradbau (ohne Kinderbank)","link":"http:\/\/localhost\/cb-items\/soldini\/","thumbnail":"http:\/\/localhost\/wp-content\/uploads\/2019\/06\/Soldini-1-150x150.jpg","status":"publish","terms":[11,90,20,167,152,18,94,27,61,44,129,73],"timeframes":[{"date_start":"2019-09-03","date_end":"2023-01-31"}],"timeframe_hints":[]}]},"2345":{"lat":52.5082395,"lon":13.479132,"location_name":"Stadtteilzentrum \"Kiezspinne\"","closed_days":["7"],"address":{"street":"Schulze-Boysen-Str. 38","city":"Berlin-Lichtenberg","zip":"10365"},"items":[{"id":2325,"name":"Bruno","short_desc":" PedalPower Berliner Lastenrad mit Kinderbank","link":"http:\/\/localhost\/cb-items\/bruno\/","thumbnail":"http:\/\/localhost\/wp-content\/uploads\/2018\/10\/Bruno-150x150.jpg","status":"publish","terms":[11,53,162,132,18,27,48,60,72],"timeframes":[{"date_start":"2018-11-05","date_end":"2023-01-31"}],"timeframe_hints":[]}]},"2346":{"lat":52.4810822,"lon":13.5227041,"location_name":"Nachbarschaftszentrum iKARUS","closed_days":["1","6","7"],"address":{"street":"Wandlitzstr. 13","city":"Berlin-Karlshorst","zip":"10318"},"items":[{"id":2328,"name":"iKARUS","short_desc":" Bakfiets CargoBike Classic Long mit Kinderbank","link":"http:\/\/localhost\/cb-items\/ikarus\/","thumbnail":"http:\/\/localhost\/wp-content\/uploads\/2018\/10\/Ikarus-150x150.jpg","status":"publish","terms":[71,15,53,162,132,18,27,48,60,114],"timeframes":[{"date_start":"2018-11-13","date_end":"2023-01-31"}],"timeframe_hints":[]}]},"2347":{"lat":52.502984807638946,"lon":13.480798602104187,"location_name":"Museum Lichtenberg","closed_days":["1","6","7"],"address":{"street":"T\u00fcrrschmidtstr. 24","city":"Berlin-Rummelsburg","zip":"10317"},"items":[{"id":2329,"name":"Victoria","short_desc":" Bakfiets CargoBike Classic Long mit Kinderbank","link":"http:\/\/localhost\/cb-items\/victoria\/","thumbnail":"http:\/\/localhost\/wp-content\/uploads\/2018\/10\/Victoria-150x150.jpg","status":"publish","terms":[71,15,53,162,132,18,27,48,60],"timeframes":[{"date_start":"2018-11-08","date_end":"2023-01-31"}],"timeframe_hints":[]}]},"2349":{"lat":52.52598,"lon":13.4779,"location_name":"Begegnungsst\u00e4tte RBO - Inmitten gGmbH","closed_days":["6","7"],"address":{"street":"Paul-Junius-Str. 64 A","city":"Berlin-Fennpfuhl","zip":"10369"},"items":[{"id":2327,"name":"Roberto","short_desc":" PedalPower Berliner Lastenrad mit Kinderbank","link":"http:\/\/localhost\/cb-items\/roberto\/","thumbnail":"http:\/\/localhost\/wp-content\/uploads\/2018\/10\/Roberto-150x150.jpg","status":"publish","terms":[11,53,162,132,18,27,48,60,72],"timeframes":[{"date_start":"2018-11-08","date_end":"2023-01-31"}],"timeframe_hints":[]}]},"2351":{"lat":52.5133317,"lon":13.4810668,"location_name":"Egon-Erwin-Kisch-Bibliothek","closed_days":["6","7"],"address":{"street":"Frankfurter Allee 149","city":"Berlin-Lichtenberg","zip":"10365"},"items":[{"id":2331,"name":"Egon","short_desc":" Bakfiets CargoBike Classic Long mit Kinderbank","link":"http:\/\/localhost\/cb-items\/egon\/","thumbnail":"http:\/\/localhost\/wp-content\/uploads\/2018\/10\/Egon-150x150.jpg","status":"publish","terms":[71,15,53,162,132,18,27,48,60],"timeframes":[{"date_start":"2018-11-12","date_end":"2023-01-31"}],"timeframe_hints":[]}]},"2352":{"lat":52.5305364,"lon":13.4707671,"location_name":"Anton-Saefkow-Bibliothek","closed_days":["6","7"],"address":{"street":"Anton-Saefkow-Platz 14","city":"Berlin-Fennpfuhl","zip":"10369"},"items":[{"id":2332,"name":"Anton","short_desc":" Bakfiets CargoBike Classic Long mit Kinderbank","link":"http:\/\/localhost\/cb-items\/anton\/","thumbnail":"http:\/\/localhost\/wp-content\/uploads\/2018\/10\/Anton-150x150.jpg","status":"publish","terms":[71,15,53,162,132,18,27,48,60],"timeframes":[{"date_start":"2018-11-01","date_end":"2023-01-31"}],"timeframe_hints":[]}]},"2353":{"lat":52.4978553,"lon":13.5209225,"location_name":"Bodo-Uhse-Bibliothek","closed_days":["6","7"],"address":{"street":"Erich-Kurz-Str. 9","city":"Berlin-Friedrichsfelde","zip":"10319"},"items":[{"id":2333,"name":"Bodo","short_desc":" Bakfiets CargoBike Classic Long mit Kinderbank","link":"http:\/\/localhost\/cb-items\/bodo\/","thumbnail":"http:\/\/localhost\/wp-content\/uploads\/2018\/10\/Bodo-150x150.jpg","status":"publish","terms":[71,15,53,162,132,18,27,48,60],"timeframes":[{"date_start":"2018-11-05","date_end":"2023-01-31"}],"timeframe_hints":[]}]},"2354":{"lat":52.5649951,"lon":13.5062702,"location_name":"Anna-Seghers-Bibliothek","closed_days":["6","7"],"address":{"street":"Prerower Platz 2 (Linden-Center)","city":"Berlin-Neu-HSH","zip":"13051"},"items":[{"id":2334,"name":"Anna","short_desc":" Bakfiets CargoBike Classic Long mit Kinderbank","link":"http:\/\/localhost\/cb-items\/anna\/","thumbnail":"http:\/\/localhost\/wp-content\/uploads\/2018\/10\/Anna-150x150.jpg","status":"publish","terms":[71,15,53,162,152,18,27,48,61,60],"timeframes":[{"date_start":"2018-10-31","date_end":"2023-01-31"}],"timeframe_hints":[]}]},"2356":{"lat":52.5505506,"lon":13.1772618,"location_name":"Klubhaus Spandau","closed_days":["3","6","7"],"address":{"street":"Westerwaldstr. 13","city":"Berlin-Falkenhag.Feld","zip":"13585"},"items":[{"id":2340,"name":"FiFFi","short_desc":" Bakfiets CargoBike Classic Long mit Kinderbank","link":"http:\/\/localhost\/cb-items\/fiffi\/","thumbnail":"http:\/\/localhost\/wp-content\/uploads\/2018\/10\/FiFFi-150x150.jpg","status":"publish","terms":[71,15,53,163,158,18,27,49,58],"timeframes":[{"date_start":"2018-11-12","date_end":"2023-01-31"}],"timeframe_hints":[]}]},"2358":{"lat":52.5426731,"lon":13.2305322,"location_name":"Spielhaus Goldbeckweg","closed_days":[],"address":{"street":"Goldbeckweg 6","city":"Berlin-Haselhorst","zip":"13599"},"items":[{"id":2335,"name":"B\u00e4rbel","short_desc":" PedalPower Berliner Lastenrad mit Kinderbank","link":"http:\/\/localhost\/cb-items\/baerbel\/","thumbnail":"http:\/\/localhost\/wp-content\/uploads\/2018\/10\/B\u00e4rbel-150x150.jpg","status":"publish","terms":[11,53,163,158,18,27,72,49,58],"timeframes":[{"date_start":"2018-11-08","date_end":"2023-01-31"}],"timeframe_hints":[]}]},"2359":{"lat":52.5684772,"lon":13.214983,"location_name":"SUZ Spandau - Gartenarbeitsschule Hakenfelde","closed_days":["6","7"],"address":{"street":"Bernkastler Weg 26","city":"Berlin-Hakenfelde","zip":"13587"},"items":[{"id":2336,"name":"Suzi","short_desc":" PedalPower Berliner Lastenrad mit Kinderbank","link":"http:\/\/localhost\/cb-items\/suzi\/","thumbnail":"http:\/\/localhost\/wp-content\/uploads\/2018\/10\/Suzi-150x150.jpg","status":"publish","terms":[11,53,163,158,18,27,72,49,58],"timeframes":[{"date_start":"2018-11-13","date_end":"2023-01-31"}],"timeframe_hints":[]}]},"2360":{"lat":52.5616836,"lon":13.2093436,"location_name":"Familienzentrum VillaNova (Kompaxx e.V.)","closed_days":["6","7"],"address":{"street":"Rauchstr. 66","city":"Berlin-Hakenfelde","zip":"13587"},"items":[{"id":2337,"name":"Giovanni","short_desc":" PedalPower Berliner Lastenrad mit Kinderbank","link":"http:\/\/localhost\/cb-items\/giovanni\/","thumbnail":"http:\/\/localhost\/wp-content\/uploads\/2018\/10\/Giovanni-150x150.jpg","status":"publish","terms":[11,53,163,158,18,27,72,49,58],"timeframes":[{"date_start":"2018-11-05","date_end":"2023-01-31"}],"timeframe_hints":[]}]},"2361":{"lat":52.52981395,"lon":13.13877715,"location_name":"Jona's Haus","closed_days":[],"address":{"street":"Schulstr. 3","city":"Berlin-Staaken","zip":"13591"},"items":[{"id":2338,"name":"Jona","short_desc":" PedalPower Berliner Lastenrad mit Kinderbank","link":"http:\/\/localhost\/cb-items\/jona\/","thumbnail":"http:\/\/localhost\/wp-content\/uploads\/2018\/10\/Jona-150x150.jpg","status":"publish","terms":[11,53,163,158,18,27,88,72,49,58],"timeframes":[{"date_start":"2018-10-27","date_end":"2023-01-31"}],"timeframe_hints":[]}]},"2362":{"lat":52.5179552,"lon":13.1689909,"location_name":"Kulturzentrum Staaken","closed_days":["6","7"],"address":{"street":"Sandstr. 41","city":"Berlin-Staaken","zip":"13593"},"items":[{"id":2342,"name":"Clipper","short_desc":" Bakfiets CargoBike Classic Long mit Kinderbank","link":"http:\/\/localhost\/cb-items\/clipper\/","thumbnail":"http:\/\/localhost\/wp-content\/uploads\/2018\/10\/Clipper-150x150.jpg","status":"publish","terms":[71,15,53,163,158,18,27,49,58],"timeframes":[{"date_start":"2018-10-29","date_end":"2023-01-31"}],"timeframe_hints":[]}]},"2363":{"lat":52.5382569,"lon":13.2670425,"location_name":"Sch\u00fclerhaus an der Schule an der Jungfernheide","closed_days":["6","7"],"address":{"street":"Lenther Steig 1-3","city":"Berlin-Siemensstadt","zip":"13629"},"items":[{"id":2343,"name":"Radler","short_desc":" Bakfiets CargoBike Classic Long mit Kinderbank","link":"http:\/\/localhost\/cb-items\/radler\/","thumbnail":"http:\/\/localhost\/wp-content\/uploads\/2018\/10\/Radler-150x150.jpg","status":"publish","terms":[71,15,53,163,158,18,27,49,58],"timeframes":[{"date_start":"2018-11-05","date_end":"2023-01-31"}],"timeframe_hints":[]}]},"2517":{"lat":52.5342886,"lon":13.5131141,"location_name":"IKEA Lichtenberg","closed_days":["7"],"address":{"street":"Landsberger Allee 364","city":"Berlin-Lichtenberg","zip":"10365"},"items":[{"id":2516,"name":"Margaretha","short_desc":"Bakfiets Cargo Trike wide mit 2 Kinderb\u00e4nken","link":"http:\/\/localhost\/cb-items\/margaretha\/","thumbnail":"http:\/\/localhost\/wp-content\/uploads\/2018\/10\/Margaretha-150x150.jpg","status":"publish","terms":[25,71,11,20,162,132,18,27,60],"timeframes":[{"date_start":"2018-10-22","date_end":"2023-01-31"}],"timeframe_hints":[]},{"id":5923,"name":"Annika","short_desc":"Bakfiets CargoTrike Classic Wide mit 2 Kinderb\u00e4nken","link":"http:\/\/localhost\/cb-items\/annika\/","thumbnail":"http:\/\/localhost\/wp-content\/uploads\/2019\/11\/Annika-150x150.jpg","status":"publish","terms":[25,71,11,20,162,132,18,27,60],"timeframes":[{"date_start":"2019-12-05","date_end":"2023-01-31"}],"timeframe_hints":[]}]},"2701":{"lat":52.7540477,"lon":13.2428719,"location_name":"Naturkost Oranjeboom","closed_days":["7"],"address":{"street":"Lehnitzstr. 21","city":"Oranienburg","zip":"16515"},"items":[{"id":2702,"name":"Jette","short_desc":"Bakfiets CargoBike Short mit 1 Kinderbank","link":"http:\/\/localhost\/cb-items\/jette\/","thumbnail":"http:\/\/localhost\/wp-content\/uploads\/2018\/11\/Jette-2-150x150.jpg","status":"publish","terms":[71,175,15,174,20,157,152,18,27,61,26,149],"timeframes":[{"date_start":"2018-11-13","date_end":"2023-01-31"}],"timeframe_hints":[]}]},"2835":{"lat":52.5426837,"lon":13.3562697,"location_name":"Bioladen mit Caf\u00e9","closed_days":["7"],"address":{"street":"Tegeler Str. 30","city":"Berlin-Wedding","zip":"13353"},"items":[{"id":56,"name":"Lotte","short_desc":"Bakfiets Trike Narrow mit 2 Kinderb\u00e4nken","link":"http:\/\/localhost\/cb-items\/lotte\/","thumbnail":"http:\/\/localhost\/wp-content\/uploads\/2018\/04\/Lotte3-150x150.jpg","status":"publish","terms":[25,71,11,20,167,152,117,18,27,61,57],"timeframes":[{"date_start":"2018-12-12","date_end":"2023-01-31"}],"timeframe_hints":[]},{"id":2873,"name":"Kalle","short_desc":"2r\u00e4driges Long Andr\u00e9 (ohne Kinderbank)","link":"http:\/\/localhost\/cb-items\/kalle\/","thumbnail":"http:\/\/localhost\/wp-content\/uploads\/2018\/11\/Kalle-150x150.jpg","status":"publish","terms":[15,20,167,152,94,27,61,67,73,57],"timeframes":[{"date_start":"2019-02-05","date_end":"2023-01-31"}],"timeframe_hints":[]}]},"3335":{"lat":52.5497144,"lon":13.4150735,"location_name":"Sch\u00f6nhauser Allee Arcaden","closed_days":["7"],"address":{"street":"Sch\u00f6nhauser Allee 80","city":"Berlin-PrenzlBerg","zip":"10439"},"items":[{"id":889,"name":"Bella","short_desc":"Bakfiets Trike Wide mit 2 Kinderb\u00e4nken","link":"http:\/\/localhost\/cb-items\/bella\/","thumbnail":"http:\/\/localhost\/wp-content\/uploads\/2018\/05\/Bella-150x150.jpg","status":"publish","terms":[71,11,20,168,152,18,27,61,149,29,57],"timeframes":[{"date_start":"2019-03-01","date_end":"2023-01-31"}],"timeframe_hints":[]}]},"3452":{"lat":52.55039121223606,"lon":13.41348053389222,"location_name":"Vattenfall Store Prenzlberg","closed_days":["7"],"address":{"street":"Sch\u00f6nhauser Allee 113","city":"Berlin-PrenzlBerg","zip":"10439"},"items":[{"id":3451,"name":"Karlsson","short_desc":"Bakfiets CargoBike Classic Long mit Kinderbank","link":"http:\/\/localhost\/cb-items\/karlsson\/","thumbnail":"http:\/\/localhost\/wp-content\/uploads\/2019\/03\/Karlsson-1-150x150.jpg","status":"publish","terms":[71,15,20,168,152,18,27,61,77,57],"timeframes":[{"date_start":"2019-03-18","date_end":"2023-01-31"}],"timeframe_hints":[]}]},"3584":{"lat":52.44135255,"lon":13.5841134432056,"location_name":"BENN Allende-Viertel","closed_days":["1","3","5","6","7"],"address":{"street":"Pohlestr. 4","city":"Berlin-K\u00f6penick","zip":"12557"},"items":[{"id":3583,"name":"Pablo","short_desc":"Bakfiets CargoTrike Classic Wide mit zwei Kinderb\u00e4nken","link":"http:\/\/localhost\/cb-items\/pablo\/","thumbnail":"http:\/\/localhost\/wp-content\/uploads\/2019\/04\/Pablo-150x150.jpg","status":"publish","terms":[71,37,11,20,111,132,18,27,114],"timeframes":[{"date_start":"2019-04-08","date_end":"2023-01-31"}],"timeframe_hints":[]}]},"3741":{"lat":52.495994,"lon":13.5107734,"location_name":"Stadtteilkoordination Lichtenberg Mitte","closed_days":["6","7"],"address":{"street":"Sewanstra\u00dfe 178 (1. OG)","city":"Berlin-Friedrichsfelde","zip":"10319"},"items":[{"id":3740,"name":"Rocky","short_desc":"Babboe Transporter mit Deckel (ohne Kinderbank)","link":"http:\/\/localhost\/cb-items\/rocky\/","thumbnail":"http:\/\/localhost\/wp-content\/uploads\/2019\/04\/Rocky-1-150x150.jpg","status":"publish","terms":[130,11,90,20,53,162,132,27,48,60],"timeframes":[{"date_start":"2019-04-23","date_end":"2023-01-31"}],"timeframe_hints":[]}]},"3798":{"lat":52.63227173419996,"lon":13.287137806883543,"location_name":"Alnatura Frohnau","closed_days":["7"],"address":{"street":"Ludolfinger Platz 8a","city":"Berlin-Frohnau","zip":"13465"},"items":[{"id":3814,"name":"Ludolf","short_desc":"Bakfiets CargoBike Classic Long mit Kinderbank","link":"http:\/\/localhost\/cb-items\/ludolf\/","thumbnail":"http:\/\/localhost\/wp-content\/uploads\/2019\/04\/Ludolf-2-150x150.jpg","status":"publish","terms":[43,71,15,20,169,152,18,27,61],"timeframes":[{"date_start":"2019-04-22","date_end":"2023-01-31"}],"timeframe_hints":[]}]},"3801":{"lat":52.52681597726139,"lon":13.332663670878663,"location_name":"Alnatura Moabit","closed_days":["7"],"address":{"street":"Turmstr. 72\/73","city":"Berlin-Moabit","zip":"10551"},"items":[{"id":3815,"name":"Oli4","short_desc":"Bakfiets CargoBike Classic Long mit Kinderbank","link":"http:\/\/localhost\/cb-items\/oli4\/","thumbnail":"http:\/\/localhost\/wp-content\/uploads\/2019\/04\/Oli4-150x150.jpg","status":"publish","terms":[43,71,15,20,167,152,117,18,27,57],"timeframes":[{"date_start":"2019-04-22","date_end":"2023-01-31"}],"timeframe_hints":[]}]},"3809":{"lat":52.5022057,"lon":13.3091987,"location_name":"Alnatura Charlottenburg Giesebrecht","closed_days":["7"],"address":{"street":"Giesebrechtstr. 4","city":"Berlin-Charlottenburg","zip":"10629"},"items":[{"id":3823,"name":"Biene","short_desc":"Bakfiets CargoBike Classic Long mit Kinderbank","link":"http:\/\/localhost\/cb-items\/biene\/","thumbnail":"http:\/\/localhost\/wp-content\/uploads\/2019\/04\/Biene-150x150.jpg","status":"publish","terms":[43,71,15,160,20,158,18,27,57],"timeframes":[{"date_start":"2019-04-30","date_end":"2023-01-31"}],"timeframe_hints":[]}]},"3791":{"lat":52.46050392467836,"lon":13.518569751532025,"location_name":"Caf\u00e9 Sch\u00f6neweile","closed_days":[],"address":{"street":"Reinbeckstr. 9","city":"Berlin-OSW","zip":"12459"},"items":[{"id":3789,"name":"Klara","short_desc":"Bakfiets CargoBike Classic Long mit Kinderbank","link":"http:\/\/localhost\/cb-items\/klara\/","thumbnail":"http:\/\/localhost\/wp-content\/uploads\/2019\/04\/Clara-150x150.jpg","status":"publish","terms":[71,15,20,111,132,18,83,27,114],"timeframes":[{"date_start":"2019-05-13","date_end":"2023-01-31"}],"timeframe_hints":[]}]},"4053":{"lat":52.54931,"lon":13.56469,"location_name":"BENN Blumberger Damm","closed_days":["5","6","7"],"address":{"street":"Jan-Petersen-Str. 14","city":"Berlin-Marzahn","zip":"12679"},"items":[{"id":4051,"name":"Blumi","short_desc":"PedalPower Lastendreirad mit einer Kinderbank und Deckel","link":"http:\/\/localhost\/cb-items\/blumi\/","thumbnail":"http:\/\/localhost\/wp-content\/uploads\/2019\/06\/Blumi-150x150.jpg","status":"publish","terms":[37,11,90,20,164,132,18,27,60,72,171],"timeframes":[{"date_start":"2019-06-01","date_end":"2023-01-31"}],"timeframe_hints":[]}]},"4382":{"lat":52.48850677709326,"lon":13.353377649000821,"location_name":"\u00c4hrensache Naturkost","closed_days":["7"],"address":{"street":"Apostel-Paulus-Str. 40","city":"Berlin-Sch\u00f6neberg","zip":"10823"},"items":[{"id":4379,"name":"Ute","short_desc":"Bakfiets CargoBike Classic Long mit Kinderbank","link":"http:\/\/localhost\/cb-items\/ute\/","thumbnail":"http:\/\/localhost\/wp-content\/uploads\/2019\/08\/Ute-1-150x150.jpg","status":"publish","terms":[25,71,15,20,161,158,18,27,57],"timeframes":[{"date_start":"2019-08-26","date_end":"2023-01-31"}],"timeframe_hints":[]}]},"4401":{"lat":52.4822989,"lon":13.3804197,"location_name":"Vintique Wood Store","closed_days":["7"],"address":{"street":"Manfred-von-Richthofen-Str. 26","city":"Berlin-Tempelhof","zip":"12101"},"items":[{"id":2168,"name":"Lena","short_desc":"zweir\u00e4driges Bullitt-Lastenrad ohne Kinderbank","link":"http:\/\/localhost\/cb-items\/lena\/","thumbnail":"http:\/\/localhost\/wp-content\/uploads\/2018\/08\/Lena-2-150x150.jpg","status":"publish","terms":[15,20,161,158,27,73,46,57],"timeframes":[{"date_start":"2019-07-01","date_end":"2023-01-31"}],"timeframe_hints":[]}]},"4518":{"lat":52.48240125659984,"lon":13.52453467181953,"location_name":"denn\u2018s Biomarkt Karlshorst","closed_days":["7"],"address":{"street":"D\u00f6nhoffstr. 41","city":"Berlin-Karlshorst","zip":"10318"},"items":[{"id":60,"name":"Bola","short_desc":"Bakfiets CargoBike Classic Long mit 1 Kinderbank","link":"http:\/\/localhost\/cb-items\/bola\/","thumbnail":"http:\/\/localhost\/wp-content\/uploads\/2019\/07\/Bola-150x150.jpg","status":"publish","terms":[71,15,24,20,162,132,18,27,60,114],"timeframes":[{"date_start":"2019-08-05","date_end":"2023-01-31"}],"timeframe_hints":[]}]},"4519":{"lat":52.5474522,"lon":13.4509431,"location_name":"denn\u2018s Biomarkt Wei\u00dfensee","closed_days":["7"],"address":{"street":"Bizetstr. 17-19","city":"Berlin-Wei\u00dfensee","zip":"13088"},"items":[{"id":59,"name":"Manni","short_desc":"Bakfiets CargoTrike Classic Wide mit 2 Kinderb\u00e4nken","link":"http:\/\/localhost\/cb-items\/manni\/","thumbnail":"http:\/\/localhost\/wp-content\/uploads\/2019\/07\/Manni-150x150.jpg","status":"publish","terms":[71,11,24,20,168,152,18,27,61,60],"timeframes":[{"date_start":"2019-08-17","date_end":"2023-01-31"}],"timeframe_hints":[]}]},"2348":{"lat":52.5672716,"lon":13.5187946,"location_name":"BENN HSH-Nord","closed_days":["5","6","7"],"address":{"street":"Warnitzer Str. 14","city":"Berlin-Neu-HSH","zip":"13057"},"items":[{"id":2326,"name":"Ben","short_desc":"Christiania Light mit 2 Kinderb\u00e4nken","link":"http:\/\/localhost\/cb-items\/ben\/","thumbnail":"http:\/\/localhost\/wp-content\/uploads\/2018\/10\/Ben-neu-2-150x150.jpg","status":"publish","terms":[11,97,53,162,152,18,27,48,61,60,72],"timeframes":[{"date_start":"2019-07-25","date_end":"2023-01-31"}],"timeframe_hints":[]},{"id":4056,"name":"Monty","short_desc":"Bakfiets CargoTrike Classic Wide mit zwei Kinderb\u00e4nken","link":"http:\/\/localhost\/cb-items\/monty\/","thumbnail":"http:\/\/localhost\/wp-content\/uploads\/2019\/05\/Monty-150x150.jpg","status":"publish","terms":[71,37,11,20,167,152,18,27,57],"timeframes":[{"date_start":"2021-12-01","date_end":"2023-01-31"}],"timeframe_hints":[{"type":"from","timestamp":1638316800}]}]},"4976":{"lat":52.4626938,"lon":13.33946,"location_name":"Walthers Buchladen","closed_days":["7"],"address":{"street":"Bismarckstr. 71","city":"Berlin-Steglitz","zip":"12157"},"items":[{"id":3790,"name":"Luna","short_desc":"Bakfiets CargoBike Classic Long mit Kinderbank","link":"http:\/\/localhost\/cb-items\/luna\/","thumbnail":"http:\/\/localhost\/wp-content\/uploads\/2019\/05\/Luna-150x150.jpg","status":"publish","terms":[71,15,20,159,134,18,27,26,59],"timeframes":[{"date_start":"2019-09-07","date_end":"2023-01-31"}],"timeframe_hints":[]}]},"5040":{"lat":52.4929098,"lon":13.4076172,"location_name":"NHU e.V.","closed_days":["6","7"],"address":{"street":"Urbanstr. 21","city":"Berlin-Kreuzberg","zip":"10961"},"items":[{"id":5039,"name":"Ulle","short_desc":"3r\u00e4driges Christiania Bike (ohne Kinderbank)","link":"http:\/\/localhost\/cb-items\/ulle\/","thumbnail":"http:\/\/localhost\/wp-content\/uploads\/2019\/09\/Ulle-150x150.jpg","status":"publish","terms":[11,97,166,20,158,94,27,95,57],"timeframes":[{"date_start":"2020-03-09","date_end":"2023-01-31"}],"timeframe_hints":[]}]},"5048":{"lat":52.4644536,"lon":13.4861816424331,"location_name":"KJFE RumBa","closed_days":["6","7"],"address":{"street":"Baumschulenstra\u00dfe 28","city":"Berlin-Baumschulenweg","zip":"12437"},"items":[{"id":5045,"name":"Franz","short_desc":"Bakfiets CargoBike Classic Long mit Kinderbank","link":"http:\/\/localhost\/cb-items\/franz\/","thumbnail":"http:\/\/localhost\/wp-content\/uploads\/2019\/09\/Franz-150x150.jpg","status":"publish","terms":[71,15,96,20,111,132,18,27,114],"timeframes":[{"date_start":"2019-09-16","date_end":"2023-01-31"}],"timeframe_hints":[]}]},"5049":{"lat":52.44386532476019,"lon":13.564362823963167,"location_name":"Stadtteilzentrum Campus Kiezspindel","closed_days":["6","7"],"address":{"street":"Rudower Str. 37","city":"Berlin-Spindlersfeld","zip":"12557"},"items":[{"id":5046,"name":"Wilhelm","short_desc":"Bakfiets CargoBike Classic Long mit Kinderbank","link":"http:\/\/localhost\/cb-items\/wilhelm\/","thumbnail":"http:\/\/localhost\/wp-content\/uploads\/2019\/09\/Wilhelm-150x150.jpg","status":"publish","terms":[71,15,96,20,111,132,18,27,114],"timeframes":[{"date_start":"2019-09-16","date_end":"2023-01-31"}],"timeframe_hints":[]}]},"5061":{"lat":52.5012867,"lon":13.4228895,"location_name":"Frauenzentrum Schokofabrik \/ OYA","closed_days":["5","6","7"],"address":{"street":"Mariannenstr. 6","city":"Berlin-Kreuzberg","zip":"10997"},"items":[{"id":2266,"name":"Dicke Marianne","short_desc":"Lastendreirad (Eigenbau) ohne Kinderbank","link":"http:\/\/localhost\/cb-items\/dicke-marianne\/","thumbnail":"http:\/\/localhost\/wp-content\/uploads\/2018\/09\/Marianne-150x150.jpg","status":"publish","terms":[11,166,20,158,94,27,47,73,57],"timeframes":[{"date_start":"2019-10-04","date_end":"2023-01-31"}],"timeframe_hints":[]}]},"5224":{"lat":52.5265604,"lon":13.3588045000722,"location_name":"Moabiter Kinderhof","closed_days":["6","7"],"address":{"street":"Seydlitzstr. 12","city":"Berlin-Moabit","zip":"10557"},"items":[{"id":5222,"name":"Molara","short_desc":"Bakfiets CargoTrike Classic Wide mit 2 Kinderb\u00e4nken","link":"http:\/\/localhost\/cb-items\/molara\/","thumbnail":"http:\/\/localhost\/wp-content\/uploads\/2019\/09\/Molara-150x150.jpg","status":"publish","terms":[71,98,11,20,167,152,18,27,57],"timeframes":[{"date_start":"2019-10-02","date_end":"2023-01-31"}],"timeframe_hints":[]}]},"5225":{"lat":52.53164592634073,"lon":13.326070010662079,"location_name":"Stadtschloss Moabit","closed_days":["6","7"],"address":{"street":"Rostocker Str. 32","city":"Berlin-Moabit","zip":"10553"},"items":[{"id":5226,"name":"Mathilde","short_desc":"Bakfiets CargoTrike Classic Wide mit 2 Kinderb\u00e4nken","link":"http:\/\/localhost\/cb-items\/mathilde\/","thumbnail":"http:\/\/localhost\/wp-content\/uploads\/2019\/11\/Mathilde-150x150.jpg","status":"publish","terms":[71,98,11,20,167,152,18,27,57],"timeframes":[{"date_start":"2019-11-18","date_end":"2023-01-31"}],"timeframe_hints":[]}]},"5298":{"lat":52.42856155007213,"lon":13.325933266625386,"location_name":"Alnatura Lichterfelde Ost","closed_days":["7"],"address":{"street":"Jungfernstieg 1-2","city":"Berlin-Lichterfelde","zip":"12207"},"items":[{"id":5289,"name":"Ferdinand","short_desc":"Bakfiets CargoBike Classic Long mit 1 Kinderbank","link":"http:\/\/localhost\/cb-items\/ferdinand\/","thumbnail":"http:\/\/localhost\/wp-content\/uploads\/2019\/09\/AlnaturaSeven-150x150.jpg","status":"publish","terms":[43,71,15,20,159,134,18,27,59],"timeframes":[{"date_start":"2019-11-04","date_end":"2023-01-31"}],"timeframe_hints":[]}]},"5299":{"lat":52.5705493,"lon":13.3283286,"location_name":"Alnatura Reinickendorf","closed_days":["7"],"address":{"street":"Ollenhauerstr. 106A","city":"Berlin-Reinickendorf","zip":"13403"},"items":[{"id":5290,"name":"Margot","short_desc":"Bakfiets CargoBike Classic Long mit 1 Kinderbank","link":"http:\/\/localhost\/cb-items\/margot\/","thumbnail":"http:\/\/localhost\/wp-content\/uploads\/2019\/10\/Margot-150x150.jpg","status":"publish","terms":[43,71,15,20,169,152,18,27,61],"timeframes":[{"date_start":"2019-11-04","date_end":"2023-01-31"}],"timeframe_hints":[]}]},"5300":{"lat":52.5001242,"lon":13.3545269,"location_name":"Alnatura Sch\u00f6neberg","closed_days":["7"],"address":{"street":"Else-Lasker-Sch\u00fcler-Str. 18-22","city":"Berlin-Sch\u00f6neberg","zip":"10783"},"items":[{"id":5291,"name":"Else","short_desc":"Bakfiets CargoBike Classic Long mit 1 Kinderbank","link":"http:\/\/localhost\/cb-items\/else\/","thumbnail":"http:\/\/localhost\/wp-content\/uploads\/2019\/10\/Else-150x150.jpg","status":"publish","terms":[43,71,15,20,161,158,18,27,57],"timeframes":[{"date_start":"2019-11-04","date_end":"2023-01-31"}],"timeframe_hints":[]}]},"5301":{"lat":52.45519215570595,"lon":13.625568132565046,"location_name":"Alnatura Friedrichshagen","closed_days":["7"],"address":{"street":"B\u00f6lschestr. 63","city":"Berlin-Friedrichshagen","zip":"12587"},"items":[{"id":5292,"name":"M\u00fcggelk\u00e4fer","short_desc":"Bakfiets CargoBike Classic Long mit 1 Kinderbank","link":"http:\/\/localhost\/cb-items\/mueggelkaefer\/","thumbnail":"http:\/\/localhost\/wp-content\/uploads\/2019\/09\/AlnaturaSeven-150x150.jpg","status":"publish","terms":[43,71,15,20,111,132,18,27,114],"timeframes":[{"date_start":"2019-11-04","date_end":"2023-01-31"}],"timeframe_hints":[]}]},"5302":{"lat":52.5284331,"lon":13.3859899,"location_name":"Alnatura Mitte","closed_days":["7"],"address":{"street":"Chausseestr. 10","city":"Berlin-Mitte","zip":"10115"},"items":[{"id":5293,"name":"Friedrich","short_desc":"Bakfiets CargoBike Classic Long mit 1 Kinderbank","link":"http:\/\/localhost\/cb-items\/friedrich\/","thumbnail":"http:\/\/localhost\/wp-content\/uploads\/2019\/09\/AlnaturaSeven-150x150.jpg","status":"publish","terms":[43,71,15,20,167,152,18,27,57],"timeframes":[{"date_start":"2019-11-04","date_end":"2023-01-31"}],"timeframe_hints":[]}]},"5303":{"lat":52.5127379,"lon":13.1966584,"location_name":"Alnatura Spandau","closed_days":["7"],"address":{"street":"Heerstr. 221","city":"Berlin-Wilhelmstadt","zip":"13595"},"items":[{"id":5294,"name":"Heera","short_desc":"Bakfiets CargoBike Classic Long mit 1 Kinderbank","link":"http:\/\/localhost\/cb-items\/heera\/","thumbnail":"http:\/\/localhost\/wp-content\/uploads\/2019\/09\/AlnaturaSeven-150x150.jpg","status":"publish","terms":[43,71,15,20,163,158,18,27,88,58],"timeframes":[{"date_start":"2019-11-01","date_end":"2023-01-31"}],"timeframe_hints":[]}]},"5304":{"lat":52.4092298,"lon":13.354533,"location_name":"Kinder- und Jugendclub \u201ehaus of fun\u201c","closed_days":["5","6"],"address":{"street":"Tirschenreuther Ring 67","city":"Berlin-Marienfelde","zip":"12279"},"items":[{"id":5295,"name":"Lasti","short_desc":"Christiania Light (ohne Kinderbank)","link":"http:\/\/localhost\/cb-items\/lasti\/","thumbnail":"http:\/\/localhost\/wp-content\/uploads\/2019\/10\/Lasti-150x150.jpg","status":"publish","terms":[11,97,20,161,134,94,27,59,100],"timeframes":[{"date_start":"2019-11-01","date_end":"2023-01-31"}],"timeframe_hints":[]}]},"5399":{"lat":52.4475593,"lon":13.6240475,"location_name":"Coiff\u00f6\u00f6r","closed_days":["7"],"address":{"street":"B\u00f6lschestr. 134","city":"Berlin-Friedrichshagen","zip":"12587"},"items":[{"id":5396,"name":"Erwin","short_desc":"Christiania Bike Light (mit 2 Kinderb\u00e4nken)","link":"http:\/\/localhost\/cb-items\/erwin\/","thumbnail":"http:\/\/localhost\/wp-content\/uploads\/2019\/10\/Erwin-150x150.jpg","status":"publish","terms":[25,11,97,20,111,132,18,27,149,114],"timeframes":[{"date_start":"2019-11-04","date_end":"2023-01-31"}],"timeframe_hints":[]}]},"5460":{"lat":52.5189147,"lon":13.4556356,"location_name":"Kinder- und Familienzentrum DAS HAUS","closed_days":["6","7"],"address":{"street":"Weidenweg 62","city":"Berlin-Friedrichshain","zip":"10247"},"items":[{"id":5459,"name":"Helbi","short_desc":"Bakfiets CargoBike Classic Long mit 1 Kinderbank","link":"http:\/\/localhost\/cb-items\/helbi\/","thumbnail":"http:\/\/localhost\/wp-content\/uploads\/2019\/10\/Helbi-150x150.jpg","status":"publish","terms":[71,15,102,166,53,152,18,27,57],"timeframes":[{"date_start":"2019-11-05","date_end":"2023-01-31"}],"timeframe_hints":[]}]},"5482":{"lat":52.5439586,"lon":13.4151937,"location_name":"Caf\u00e9 Butter","closed_days":["1","7"],"address":{"street":"Pappelallee 73","city":"Berlin-Prenzlberg","zip":"10437"},"items":[{"id":57,"name":"Luise","short_desc":"Bakfiets Bike long mit 1 Kinderbank","link":"http:\/\/localhost\/cb-items\/luise\/","thumbnail":"http:\/\/localhost\/wp-content\/uploads\/2017\/12\/Luise-150x150.jpg","status":"publish","terms":[25,71,15,20,168,152,18,27,57],"timeframes":[{"date_start":"2019-11-28","date_end":"2023-01-31"}],"timeframe_hints":[]}]},"5568":{"lat":52.44626965,"lon":13.3347554089043,"location_name":"Campus Albert Schweitzer","closed_days":["6","7"],"address":{"street":"Am Eichgarten 14 (bitte am Hauseingang klingeln und warten bis jemand kommt)","city":"Berlin-Steglitz","zip":"12167"},"items":[{"id":5567,"name":"Albert","short_desc":"Christiania Bike Light mit 2 Kinderb\u00e4nken","link":"http:\/\/localhost\/cb-items\/albert\/","thumbnail":"http:\/\/localhost\/wp-content\/uploads\/2019\/11\/Albert-2-150x150.jpg","status":"publish","terms":[11,97,53,159,134,18,27,59,104],"timeframes":[{"date_start":"2019-11-11","date_end":"2023-01-31"}],"timeframe_hints":[]}]},"5586":{"lat":52.511045498557955,"lon":13.329238063308138,"location_name":"TU Berlin - ZE Hochschulsport","closed_days":["1","3","4","5","6","7"],"address":{"street":"Str. des 17. Juni 135 (S\u00fcdcampus Geb. V EG 1.T\u00fcr rechts)","city":"Berlin-Charlottenburg","zip":"10623"},"items":[{"id":5585,"name":"Arnold","short_desc":"ROMA BASIC Work Tricycle ohne Kinderbank","link":"http:\/\/localhost\/cb-items\/arnold\/","thumbnail":"http:\/\/localhost\/wp-content\/uploads\/2019\/11\/Arnold-150x150.jpg","status":"publish","terms":[11,160,20,158,94,27,73,46,57],"timeframes":[{"date_start":"2019-11-11","date_end":"2023-01-31"}],"timeframe_hints":[]}]},"5696":{"lat":52.4637788,"lon":13.3877840696688,"location_name":"Bezirkszentralbibliothek Tempelhof","closed_days":["7"],"address":{"street":"G\u00f6tzstr. 8-12 (Eva-Maria-Buch-Haus)","city":"Berlin-Tempelhof","zip":"12099"},"items":[{"id":5695,"name":"Eva","short_desc":"Bakfiets CargoBike Classic Long mit 1 Kinderbank","link":"http:\/\/localhost\/cb-items\/eva\/","thumbnail":"http:\/\/localhost\/wp-content\/uploads\/2019\/11\/Eva-150x150.jpg","status":"publish","terms":[71,15,53,161,134,18,27,59,110],"timeframes":[{"date_start":"2020-01-23","date_end":"2023-01-31"}],"timeframe_hints":[]}]},"5647":{"lat":52.54041475,"lon":13.5915053,"location_name":"SOS-Familienzentrum Berlin","closed_days":["6","7"],"address":{"street":"Alte Hellersdorfer Str. 77","city":"Berlin-Hellersdorf","zip":"12629"},"items":[{"id":5645,"name":"SOSi","short_desc":"Bakfiets CargoBike Classic Long mit 1 Kinderbank","link":"http:\/\/localhost\/cb-items\/sosi\/","thumbnail":"http:\/\/localhost\/wp-content\/uploads\/2019\/11\/SOSi-150x150.jpg","status":"publish","terms":[71,15,53,164,132,18,27,105,60],"timeframes":[{"date_start":"2019-11-25","date_end":"2023-01-31"}],"timeframe_hints":[]}]},"5660":{"lat":52.531273908604106,"lon":13.329414672816437,"location_name":"REFO Moabit","closed_days":["6","7"],"address":{"street":"Wiclefstr. 32","city":"Berlin-Moabit","zip":"10551"},"items":[{"id":5659,"name":"REFOsine","short_desc":"Bakfiets CargoBike Classic Long mit 1 Kinderbank","link":"http:\/\/localhost\/cb-items\/refosine\/","thumbnail":"http:\/\/localhost\/wp-content\/uploads\/2019\/11\/REFOsine-150x150.jpg","status":"publish","terms":[71,98,15,20,167,152,18,27,57],"timeframes":[{"date_start":"2019-11-25","date_end":"2023-01-31"}],"timeframe_hints":[]}]},"5648":{"lat":52.48406083988362,"lon":13.350534675923388,"location_name":"Mittelpunktbibliothek Sch\u00f6neberg","closed_days":["7"],"address":{"street":"Hauptstr. 40","city":"Berlin-Sch\u00f6neberg","zip":"10827"},"items":[{"id":5646,"name":"Theo","short_desc":"Bakfiets CargoBike Classic Long mit 1 Kinderbank","link":"http:\/\/localhost\/cb-items\/theo\/","thumbnail":"http:\/\/localhost\/wp-content\/uploads\/2019\/11\/Theo-150x150.jpg","status":"publish","terms":[71,15,53,161,158,18,27,110,57],"timeframes":[{"date_start":"2019-11-25","date_end":"2023-01-31"}],"timeframe_hints":[]}]},"5760":{"lat":52.4495046,"lon":13.3384643,"location_name":"Evangelische Markusgemeinde","closed_days":["3","5","6","7"],"address":{"street":"Albrechtstr. 81A","city":"Berlin-Steglitz","zip":"12167"},"items":[{"id":5759,"name":"Markus","short_desc":"Bakfiets CargoBike Classic Long mit 1 Kinderbank","link":"http:\/\/localhost\/cb-items\/markus\/","thumbnail":"http:\/\/localhost\/wp-content\/uploads\/2019\/11\/Markus-150x150.jpg","status":"publish","terms":[71,15,53,159,134,18,27,59,104],"timeframes":[{"date_start":"2019-12-04","date_end":"2023-01-31"}],"timeframe_hints":[]}]},"5842":{"lat":52.51754555,"lon":13.6256692490342,"location_name":"Wuhletal gGmbH (BW)","closed_days":["2","5","6","7"],"address":{"street":"Lemkestr. 32","city":"Berlin-Mahlsdorf","zip":"12623"},"items":[{"id":5841,"name":"Dicke Berta","short_desc":"Christiania Light mit 2 Kinderb\u00e4nken","link":"http:\/\/localhost\/cb-items\/dicke-berta\/","thumbnail":"http:\/\/localhost\/wp-content\/uploads\/2019\/11\/Berta-150x150.jpg","status":"publish","terms":[11,97,53,164,132,18,27,105,60],"timeframes":[{"date_start":"2019-12-01","date_end":"2023-01-31"}],"timeframe_hints":[]}]},"5618":{"lat":52.5077154,"lon":13.3990271,"location_name":"Alte Feuerwache e.V.","closed_days":[],"address":{"street":"Axel-Springer-Str. 40\/41","city":"Berlin-Kreuzberg","zip":"10969"},"items":[{"id":5610,"name":"Sirene","short_desc":"Christiania Bike Light mit 2 Kinderb\u00e4nken","link":"http:\/\/localhost\/cb-items\/sirene\/","thumbnail":"http:\/\/localhost\/wp-content\/uploads\/2019\/11\/Sirene-150x150.jpg","status":"publish","terms":[11,97,102,166,53,158,18,27,57],"timeframes":[{"date_start":"2019-12-04","date_end":"2023-01-31"}],"timeframe_hints":[]}]},"5619":{"lat":52.48793219461372,"lon":13.38503828635029,"location_name":"Die gelbe Villa","closed_days":["6","7"],"address":{"street":"Wilhelmsh\u00f6he 10","city":"Berlin-Kreuzberg","zip":"10965"},"items":[{"id":5611,"name":"Wilhelmine","short_desc":"Christiania Bike Light mit 2 Kinderb\u00e4nken","link":"http:\/\/localhost\/cb-items\/wilhelmine\/","thumbnail":"http:\/\/localhost\/wp-content\/uploads\/2019\/11\/Berta-150x150.jpg","status":"publish","terms":[11,97,102,166,53,158,18,27,57],"timeframes":[{"date_start":"2019-12-09","date_end":"2023-01-31"}],"timeframe_hints":[]}]},"5620":{"lat":52.500591182965266,"lon":13.418270945549013,"location_name":"FHXB-Museum","closed_days":["1"],"address":{"street":"Adalbertstr. 95A","city":"Berlin-Kreuzberg","zip":"10999"},"items":[{"id":5858,"name":"Yasmin","short_desc":"Christiania Bike Light mit 2 Kinderb\u00e4nken","link":"http:\/\/localhost\/cb-items\/yasmin\/","thumbnail":"http:\/\/localhost\/wp-content\/uploads\/2019\/11\/Yasmin-1-150x150.jpg","status":"publish","terms":[11,97,102,166,53,158,18,27,57],"timeframes":[{"date_start":"2020-01-09","date_end":"2023-01-31"}],"timeframe_hints":[]}]},"5861":{"lat":52.5284094,"lon":13.5400022,"location_name":"FreiwilligenAgentur Marzahn-Hellersdorf","closed_days":["6","7"],"address":{"street":"Helene-Weigel-Platz 6","city":"Berlin-Marzahn","zip":"12681"},"items":[{"id":5860,"name":"Helene","short_desc":"Christiania Bike Light mit 2 Kinderb\u00e4nken","link":"http:\/\/localhost\/cb-items\/helene\/","thumbnail":"http:\/\/localhost\/wp-content\/uploads\/2019\/11\/Helene-150x150.jpg","status":"publish","terms":[11,97,53,164,132,18,27,105,60,88],"timeframes":[{"date_start":"2019-12-09","date_end":"2023-01-31"}],"timeframe_hints":[]}]},"5863":{"lat":52.538805022152815,"lon":13.608648746714332,"location_name":"Eastend","closed_days":["1","6","7"],"address":{"street":"Tangerm\u00fcnder Str. 127","city":"Berlin-Hellersdorf","zip":"12627"},"items":[{"id":5862,"name":"Longo","short_desc":"Christiania Bike Light mit 2 Kinderb\u00e4nken","link":"http:\/\/localhost\/cb-items\/longo\/","thumbnail":"http:\/\/localhost\/wp-content\/uploads\/2019\/12\/Longo-150x150.jpg","status":"publish","terms":[11,97,53,164,132,18,27,105,60],"timeframes":[{"date_start":"2020-01-07","date_end":"2023-01-31"}],"timeframe_hints":[]}]},"5925":{"lat":52.52086918882907,"lon":13.413834571838379,"location_name":"denn\u2018s Biomarkt Alexanderplatz","closed_days":["7"],"address":{"street":"Alexanderplatz 2 (Alexanderhaus)","city":"Berlin-Mitte","zip":"10178"},"items":[{"id":5924,"name":"Gandhi","short_desc":"Bakfiets CargoTrike Classic Wide mit 2 Kinderb\u00e4nken","link":"http:\/\/localhost\/cb-items\/gandhi\/","thumbnail":"http:\/\/localhost\/wp-content\/uploads\/2019\/11\/Gandhi-1-150x150.jpg","status":"publish","terms":[25,71,11,20,167,152,18,27,57],"timeframes":[{"date_start":"2020-01-18","date_end":"2023-01-31"}],"timeframe_hints":[]}]},"5621":{"lat":52.51648201881731,"lon":13.452717049074677,"location_name":"Galerie im Turm","closed_days":[],"address":{"street":"Frankfurter Tor 1","city":"Berlin-Friedrichshain","zip":"10243"},"items":[{"id":5612,"name":"Git","short_desc":"Bakfiets CargoBike Classic Long mit 1 Kinderbank","link":"http:\/\/localhost\/cb-items\/git\/","thumbnail":"http:\/\/localhost\/wp-content\/uploads\/2019\/11\/GIT-150x150.jpg","status":"publish","terms":[71,15,102,166,53,152,18,27,57],"timeframes":[{"date_start":"2019-12-12","date_end":"2023-01-31"}],"timeframe_hints":[]}]},"5625":{"lat":52.5038683,"lon":13.4570082,"location_name":"Familienzentrum FUN","closed_days":["5","6","7"],"address":{"street":"Modersohnstr. 46","city":"Berlin-Friedrichshain","zip":"10245"},"items":[{"id":5615,"name":"FUNny","short_desc":"Bakfiets CargoTrike Classic Wide mit 2 Kinderb\u00e4nken","link":"http:\/\/localhost\/cb-items\/funny\/","thumbnail":"http:\/\/localhost\/wp-content\/uploads\/2019\/12\/FUNny-150x150.jpg","status":"publish","terms":[71,11,102,166,53,152,18,27,57],"timeframes":[{"date_start":"2020-01-13","date_end":"2023-01-31"}],"timeframe_hints":[]}]},"5623":{"lat":52.50818306334373,"lon":13.458160758018494,"location_name":"Kinderfreizeiteinrichtung \u201eK\u00e4nguruh\u201c","closed_days":["6","7"],"address":{"street":"Konitzerstr. 2","city":"Berlin-Friedrichshain","zip":"10245"},"items":[{"id":5614,"name":"I K\u00e4n Rad","short_desc":"Bakfiets CargoBike Classic Long mit 1 Kinderbank","link":"http:\/\/localhost\/cb-items\/i-kaen-rad\/","thumbnail":"http:\/\/localhost\/wp-content\/uploads\/2019\/11\/IK\u00e4nRad-150x150.jpg","status":"publish","terms":[71,15,102,166,53,152,18,27,57],"timeframes":[{"date_start":"2020-01-13","date_end":"2023-01-31"}],"timeframe_hints":[]}]},"5622":{"lat":52.51942643275132,"lon":13.431145593826736,"location_name":"Familienzentrum Menschenskinder","closed_days":["6","7"],"address":{"street":"F\u00fcrstenwalder Str. 30 (Nordhof)","city":"Berlin-Friedrichshain","zip":"10243"},"items":[{"id":5613,"name":"Lieschen","short_desc":"Bakfiets CargoTrike Classic Wide mit 2 Kinderb\u00e4nken","link":"http:\/\/localhost\/cb-items\/lieschen\/","thumbnail":"http:\/\/localhost\/wp-content\/uploads\/2019\/11\/Lieschen-1-150x150.jpg","status":"publish","terms":[71,11,102,166,53,152,18,27,57],"timeframes":[{"date_start":"2020-02-01","date_end":"2023-01-31"}],"timeframe_hints":[]}]},"5616":{"lat":52.496875,"lon":13.4078199,"location_name":"Statthaus B\u00f6cklerpark","closed_days":["6","7"],"address":{"street":"Prinzenstr. 1","city":"Berlin-Kreuzberg","zip":"10969"},"items":[{"id":5608,"name":"Statti","short_desc":"Bakfiets CargoBike Classic Long mit 1 Kinderbank","link":"http:\/\/localhost\/cb-items\/statti\/","thumbnail":"http:\/\/localhost\/wp-content\/uploads\/2019\/11\/Statti-150x150.jpg","status":"publish","terms":[71,15,102,166,53,158,18,27,57],"timeframes":[{"date_start":"2020-02-01","date_end":"2023-01-31"}],"timeframe_hints":[]}]},"5617":{"lat":52.5033394,"lon":13.4045191,"location_name":"Kinderfreizeithaus \u201eKleine Ritterburg\u201c","closed_days":["6","7"],"address":{"street":"Ritterstr. 36","city":"Berlin-Kreuzberg","zip":"10969"},"items":[{"id":5609,"name":"Ritterkutsche","short_desc":"Bakfiets CargoBike Classic Long mit 1 Kinderbank","link":"http:\/\/localhost\/cb-items\/ritterkutsche\/","thumbnail":"http:\/\/localhost\/wp-content\/uploads\/2019\/11\/Ritterkutsche-150x150.jpg","status":"publish","terms":[71,15,102,166,53,158,18,27,57],"timeframes":[{"date_start":"2020-01-27","date_end":"2023-01-31"}],"timeframe_hints":[]}]},"6030":{"lat":52.4709239,"lon":13.3350998,"location_name":"Nicolaische Buchhandlung","closed_days":["7"],"address":{"street":"Rheinstr. 65","city":"Berlin-Friedenau","zip":"12159"},"items":[{"id":6032,"name":"Lenja","short_desc":"Babboe Carve Mountain mit 1 Kinderbank","link":"http:\/\/localhost\/cb-items\/lenja\/","thumbnail":"http:\/\/localhost\/wp-content\/uploads\/2019\/12\/Lenja-150x150.jpg","status":"publish","terms":[130,11,75,20,161,134,18,27,26,59],"timeframes":[{"date_start":"2020-01-02","date_end":"2023-01-31"}],"timeframe_hints":[]}]},"6039":{"lat":52.4168579,"lon":13.3666156,"location_name":"BENN-B\u00fcro Marienfelde","closed_days":["1","3","5","6","7"],"address":{"street":"Marienfelder Allee 107","city":"Berlin-Marienfelde","zip":"12277"},"items":[{"id":6038,"name":"Marie","short_desc":"Christiania Bike Light mit 2 Kinderb\u00e4nken","link":"http:\/\/localhost\/cb-items\/marie\/","thumbnail":"http:\/\/localhost\/wp-content\/uploads\/2020\/02\/Marie-150x150.jpg","status":"publish","terms":[11,97,53,161,134,18,27,59,110],"timeframes":[{"date_start":"2020-02-15","date_end":"2023-01-31"}],"timeframe_hints":[]}]},"6044":{"lat":52.418018,"lon":13.1480597,"location_name":"JFE Wannsee \/ Jugendhaus","closed_days":["6","7"],"address":{"street":"K\u00f6nigstr. 42","city":"Berlin-Wannsee","zip":"14109"},"items":[{"id":6043,"name":"Wannseerad","short_desc":"Bakfiets E-CargoBike Classic Long mit 1 Kinderbank","link":"http:\/\/localhost\/cb-items\/wannseerad\/","thumbnail":"http:\/\/localhost\/wp-content\/uploads\/2020\/01\/Wannseerad-150x150.jpg","status":"publish","terms":[71,15,75,53,159,154,18,27,59,104],"timeframes":[{"date_start":"2020-01-21","date_end":"2023-01-31"}],"timeframe_hints":[]}]},"6048":{"lat":52.43385036638051,"lon":13.254387869204297,"location_name":"Mittelhof","closed_days":["6","7"],"address":{"street":"K\u00f6nigstr. 42-43","city":"Berlin-Zehlendorf","zip":"14163"},"items":[{"id":6047,"name":"VillaVelo","short_desc":"Bakfiets CargoTrike Classic Wide mit 2 Kinderb\u00e4nken","link":"http:\/\/localhost\/cb-items\/villavelo\/","thumbnail":"http:\/\/localhost\/wp-content\/uploads\/2019\/12\/VillaVelo-1-150x150.jpg","status":"publish","terms":[71,11,53,159,154,18,27,59,104],"timeframes":[{"date_start":"2020-02-01","date_end":"2023-01-31"}],"timeframe_hints":[]}]},"6050":{"lat":52.4396626,"lon":13.2775608,"location_name":"Nachbarschaftshaus Wannseebahn","closed_days":["6","7"],"address":{"street":"Berliner Str. 82","city":"Berlin-Zehlendorf","zip":"14169"},"items":[{"id":6049,"name":"Larisza","short_desc":"Bakfiets CargoBike Classic Long mit 1 Kinderbank","link":"http:\/\/localhost\/cb-items\/larisza\/","thumbnail":"http:\/\/localhost\/wp-content\/uploads\/2019\/12\/Larisza-150x150.jpg","status":"publish","terms":[71,15,53,159,154,18,27,59,104],"timeframes":[{"date_start":"2020-01-27","date_end":"2023-01-31"}],"timeframe_hints":[]}]},"6052":{"lat":52.4132443,"lon":13.2662272,"location_name":"Mehrgenerationenhaus Phoenix","closed_days":["6","7"],"address":{"street":"Teltower Damm 228","city":"Berlin-Zehlendorf","zip":"14167"},"items":[{"id":6051,"name":"Phoenix","short_desc":"Bakfiets E-CargoTrike Classic Wide mit 2 Kinderb\u00e4nken","link":"http:\/\/localhost\/cb-items\/phoenix\/","thumbnail":"http:\/\/localhost\/wp-content\/uploads\/2020\/02\/Phoenix-150x150.jpg","status":"publish","terms":[71,11,75,53,159,154,18,27,59,104],"timeframes":[{"date_start":"2020-02-01","date_end":"2023-01-31"}],"timeframe_hints":[]}]},"6058":{"lat":52.4611642,"lon":13.3344541,"location_name":"JFZ JeverNeun","closed_days":["6","7"],"address":{"street":"Jeverstr. 9","city":"Berlin-Steglitz","zip":"12157"},"items":[{"id":6057,"name":"Jever","short_desc":"Bakfiets CargoTrike Classic Wide mit 2 Kinderb\u00e4nken","link":"http:\/\/localhost\/cb-items\/jever\/","thumbnail":"http:\/\/localhost\/wp-content\/uploads\/2019\/12\/Jever-1-150x150.jpg","status":"publish","terms":[71,11,53,159,134,18,27,59,104],"timeframes":[{"date_start":"2020-02-10","date_end":"2023-01-31"}],"timeframe_hints":[]}]},"6063":{"lat":52.4873417,"lon":13.5600907,"location_name":"Freizeithaus Balzerplatz","closed_days":["6","7"],"address":{"street":"K\u00f6penicker Str. 184","city":"Berlin-Biesdorf","zip":"12683"},"items":[{"id":6062,"name":"Balzerina","short_desc":"Bakfiets CargoTrike Classic Wide mit 2 Kinderb\u00e4nken","link":"http:\/\/localhost\/cb-items\/balzerina\/","thumbnail":"http:\/\/localhost\/wp-content\/uploads\/2020\/01\/Balzerina-150x150.jpg","status":"publish","terms":[71,11,53,164,132,18,27,105,60],"timeframes":[{"date_start":"2020-01-20","date_end":"2023-01-31"}],"timeframe_hints":[]}]},"6065":{"lat":52.5723062,"lon":13.5682111,"location_name":"JFE \"UNO\"","closed_days":["6","7"],"address":{"street":"M\u00e4rkische Allee 414","city":"Berlin-Marzahn","zip":"12689"},"items":[{"id":6064,"name":"UNO","short_desc":"Bakfiets CargoBike Classic Long mit 1 Kinderbank","link":"http:\/\/localhost\/cb-items\/uno\/","thumbnail":"http:\/\/localhost\/wp-content\/uploads\/2020\/01\/UNO-150x150.jpg","status":"publish","terms":[71,15,53,164,152,18,27,105,61,60],"timeframes":[{"date_start":"2020-02-01","date_end":"2023-01-31"}],"timeframe_hints":[]}]},"6068":{"lat":52.5440244,"lon":13.5594739,"location_name":"Wuhletal gGmbH (Tagesst\u00e4tte)","closed_days":["6","7"],"address":{"street":"Alt-Marzahn 31","city":"Berlin-Marzahn","zip":"12685"},"items":[{"id":6066,"name":"Schubidu","short_desc":"Bakfiets CargoBike Classic Long mit 1 Kinderbank","link":"http:\/\/localhost\/cb-items\/schubidu\/","thumbnail":"http:\/\/localhost\/wp-content\/uploads\/2020\/01\/Schubidu-1-150x150.jpg","status":"publish","terms":[71,15,53,164,132,18,27,105,60],"timeframes":[{"date_start":"2020-01-20","date_end":"2023-01-31"}],"timeframe_hints":[]}]},"6070":{"lat":52.517194,"lon":13.5702821,"location_name":"Wuhletal gGmbH (BEW)","closed_days":["6","7"],"address":{"street":"Brebacher Weg 15 (Haus 32)","city":"Berlin-Biesdorf","zip":"12683"},"items":[{"id":6069,"name":"KonRad","short_desc":"Bakfiets CargoBike Classic Long mit 1 Kinderbank","link":"http:\/\/localhost\/cb-items\/konrad\/","thumbnail":"http:\/\/localhost\/wp-content\/uploads\/2019\/12\/KonRad-150x150.jpg","status":"publish","terms":[71,15,53,164,132,18,27,105,60],"timeframes":[{"date_start":"2020-01-27","date_end":"2023-01-31"}],"timeframe_hints":[]}]},"6072":{"lat":52.5160993,"lon":13.5887274,"location_name":"Villa Pelikan","closed_days":["1","6","7"],"address":{"street":"Hellersdorfer Str. 27","city":"Berlin-Kaulsdorf","zip":"12621"},"items":[{"id":6071,"name":"Peli","short_desc":"Bakfiets CargoTrike Classic Wide mit 2 Kinderb\u00e4nken","link":"http:\/\/localhost\/cb-items\/peli\/","thumbnail":"http:\/\/localhost\/wp-content\/uploads\/2020\/01\/Peli-150x150.jpg","status":"publish","terms":[71,11,53,164,132,18,27,105,60],"timeframes":[{"date_start":"2020-01-18","date_end":"2023-01-31"}],"timeframe_hints":[]}]},"6073":{"lat":52.5275752,"lon":13.5854508,"location_name":"KOMPASS","closed_days":["6","7"],"address":{"street":"Kummerower Ring 42 (c\/o Klub 74)","city":"Berlin-Kaulsdorf","zip":"12619"},"items":[{"id":6077,"name":"Liebe","short_desc":"Bakfiets CargoBike Classic Long mit 1 Kinderbank","link":"http:\/\/localhost\/cb-items\/liebe\/","thumbnail":"http:\/\/localhost\/wp-content\/uploads\/2020\/01\/Liebe-150x150.jpg","status":"publish","terms":[71,15,53,164,132,18,27,105,60,88],"timeframes":[{"date_start":"2020-01-20","date_end":"2023-01-31"}],"timeframe_hints":[]}]},"6107":{"lat":52.4839299,"lon":13.388538,"location_name":"CityLAB Berlin","closed_days":["6","7"],"address":{"street":"Platz der Luftbr\u00fccke 4","city":"Berlin-Tempelhof","zip":"12101"},"items":[{"id":2169,"name":"Lars","short_desc":" zweir\u00e4driges Bullitt-Lastenrad mit Deckel (ohne Kinderbank)","link":"http:\/\/localhost\/cb-items\/lars\/","thumbnail":"http:\/\/localhost\/wp-content\/uploads\/2018\/08\/Lars-150x150.jpg","status":"publish","terms":[15,90,20,161,158,27,73,46,57],"timeframes":[{"date_start":"2020-01-08","date_end":"2023-01-31"}],"timeframe_hints":[]}]},"6286":{"lat":52.4398321,"lon":13.5537091,"location_name":"Adlershofer Fahrradwelt","closed_days":["6","7"],"address":{"street":"D\u00f6rpfeldstr. 73","city":"Berlin-Adlershof","zip":"12489"},"items":[{"id":3456,"name":"D\u00f6rk","short_desc":"Bakfiets CargoTrike Classic Wide mit 2 Kinderb\u00e4nken","link":"http:\/\/localhost\/cb-items\/doerk\/","thumbnail":"http:\/\/localhost\/wp-content\/uploads\/2019\/03\/Doerk-150x150.jpg","status":"publish","terms":[78,71,11,20,111,132,18,27,88,149,114],"timeframes":[{"date_start":"2020-01-13","date_end":"2023-01-31"}],"timeframe_hints":[]}]},"6350":{"lat":52.5298545,"lon":13.3456105,"location_name":"Stadtrand gGmbH","closed_days":["6","7"],"address":{"street":"Perleberger Str. 44","city":"Berlin-Moabit","zip":"10559"},"items":[{"id":6349,"name":"Perle","short_desc":"Bakfiets CargoBike Classic Long mit 1 Kinderbank","link":"http:\/\/localhost\/cb-items\/perle\/","thumbnail":"http:\/\/localhost\/wp-content\/uploads\/2020\/01\/Perle-150x150.jpg","status":"publish","terms":[71,98,15,20,167,152,117,18,27,57],"timeframes":[{"date_start":"2020-01-22","date_end":"2023-01-31"}],"timeframe_hints":[]}]},"6586":{"lat":52.491945,"lon":13.3524589,"location_name":"Nachbarschafts- und Familienzentrum Kiezoase","closed_days":["6","7"],"address":{"street":"Barbarossastra\u00dfe 65","city":"Berlin-Sch\u00f6neberg","zip":"10781"},"items":[{"id":6585,"name":"Rossi","short_desc":"Bakfiets CargoTrike Classic Wide mit 2 Kinderb\u00e4nken","link":"http:\/\/localhost\/cb-items\/rossi\/","thumbnail":"http:\/\/localhost\/wp-content\/uploads\/2020\/02\/Rossi-150x150.jpg","status":"publish","terms":[71,11,53,161,158,18,27,110,57],"timeframes":[{"date_start":"2020-03-02","date_end":"2023-01-31"}],"timeframe_hints":[]}]},"6720":{"lat":52.4718167,"lon":13.3292327,"location_name":"Jugendburg Friedenau","closed_days":["6","7"],"address":{"street":"Friedrich-Wilhelm-Platz 11","city":"Berlin-Friedenau","zip":"12161"},"items":[{"id":6718,"name":"Hermes","short_desc":"Christiania Bike Light mit 2 Kinderb\u00e4nken","link":"http:\/\/localhost\/cb-items\/hermes\/","thumbnail":"http:\/\/localhost\/wp-content\/uploads\/2020\/02\/Hermes-150x150.jpg","status":"publish","terms":[11,97,53,161,134,18,27,59,110],"timeframes":[{"date_start":"2020-03-16","date_end":"2023-01-31"}],"timeframe_hints":[]}]},"6719":{"lat":52.4548176,"lon":13.3817131,"location_name":"ufaFabrik","closed_days":["6","7"],"address":{"street":"Viktoriastra\u00dfe 10-18","city":"Berlin-Tempelhof","zip":"12105"},"items":[{"id":6717,"name":"ufaRad","short_desc":"Bakfiets CargoBike Classic Long mit 1 Kinderbank","link":"http:\/\/localhost\/cb-items\/ufarad\/","thumbnail":"http:\/\/localhost\/wp-content\/uploads\/2020\/06\/ufaRad-150x150.jpg","status":"publish","terms":[71,15,53,161,134,18,27,59,110],"timeframes":[{"date_start":"2020-06-18","date_end":"2023-01-31"}],"timeframe_hints":[]}]},"6834":{"lat":52.557821,"lon":13.4439554,"location_name":"BENN Wei\u00dfensee","closed_days":["6","7"],"address":{"street":"Gustav-Adolf-Str. 125","city":"Berlin-Wei\u00dfensee","zip":"13086"},"items":[{"id":6833,"name":"Gustav","short_desc":"Bakfiets E-CargoTrike Classic Narrow mit 2 Kinderb\u00e4nken","link":"http:\/\/localhost\/cb-items\/gustav\/","thumbnail":"http:\/\/localhost\/wp-content\/uploads\/2020\/03\/Gustav-150x150.jpg","status":"publish","terms":[71,37,11,75,20,168,152,18,27,61],"timeframes":[{"date_start":"2020-03-16","date_end":"2023-01-31"}],"timeframe_hints":[]}]},"7047":{"lat":52.449791472786636,"lon":13.252248028300706,"location_name":"Toms Kaffeer\u00f6sterei","closed_days":["7"],"address":{"street":"Ladenstr. 50","city":"Berlin-Zehlendorf","zip":"14169"},"items":[{"id":7046,"name":"Onkel Tom","short_desc":"Bakfiets CargoBike Classic Long mit 1 Kinderbank","link":"http:\/\/localhost\/cb-items\/onkel-tom\/","thumbnail":"http:\/\/localhost\/wp-content\/uploads\/2020\/03\/Onkel-Tom-150x150.jpg","status":"publish","terms":[71,15,119,20,159,154,18,27,59],"timeframes":[{"date_start":"2020-03-23","date_end":"2023-01-31"}],"timeframe_hints":[]}]},"7079":{"lat":52.4737828,"lon":13.4490888,"location_name":"Kaspertheater Rixdorf","closed_days":["6","7"],"address":{"street":"B\u00f6hmische Str. 46","city":"Berlin-Neuk\u00f6lln","zip":"12055"},"items":[{"id":7077,"name":"Rosinante","short_desc":"Babboe Big mit 2 Kinderb\u00e4nken","link":"http:\/\/localhost\/cb-items\/rosinante\/","thumbnail":"http:\/\/localhost\/wp-content\/uploads\/2020\/03\/Rosinante-150x150.jpg","status":"publish","terms":[130,11,96,20,165,158,18,27,149,57],"timeframes":[{"date_start":"2020-03-30","date_end":"2023-01-31"}],"timeframe_hints":[]}]},"7082":{"lat":52.6326468,"lon":13.4954775,"location_name":"BENN Team \u2013 Bucher B\u00fcrgerhaus","closed_days":["1","3","5","6","7"],"address":{"street":"Franz-Schmidt-Str. 8-10","city":"Berlin-Buch","zip":"13125"},"items":[{"id":7081,"name":"Doris","short_desc":"Babboe Transporter Pro-Trike ohne Kinderbank","link":"http:\/\/localhost\/cb-items\/doris\/","thumbnail":"http:\/\/localhost\/wp-content\/uploads\/2020\/03\/Doris-150x150.jpg","status":"publish","terms":[130,37,11,90,20,168,152,27,61],"timeframes":[{"date_start":"2020-05-15","date_end":"2023-01-31"}],"timeframe_hints":[]}]},"7155":{"lat":52.4975481,"lon":13.4187866,"location_name":"Radspannerei","closed_days":["7"],"address":{"street":"Kottbusser Str. 8","city":"Berlin-Kreuzberg","zip":"10999"},"items":[{"id":7154,"name":"Pascale","short_desc":"Bakfiets CargoBike Classic Long mit 1 Kinderbank","link":"http:\/\/localhost\/cb-items\/pascale\/","thumbnail":"http:\/\/localhost\/wp-content\/uploads\/2020\/05\/Pascale-150x150.jpg","status":"publish","terms":[71,15,166,20,158,18,27,123,57],"timeframes":[{"date_start":"2020-05-18","date_end":"2023-01-31"}],"timeframe_hints":[]}]},"7732":{"lat":52.5192956,"lon":13.3910811,"location_name":"Fahrradstation","closed_days":["7"],"address":{"street":"Dorotheenstr. 30","city":"Berlin-Mitte","zip":"10117"},"items":[{"id":7729,"name":"Dorothee","short_desc":"Gazelle Cabby mit 1 Kinderbank","link":"http:\/\/localhost\/cb-items\/dorothee\/","thumbnail":"http:\/\/localhost\/wp-content\/uploads\/2020\/05\/Dorothee-150x150.jpg","status":"publish","terms":[15,136,20,167,152,18,27,73,57],"timeframes":[{"date_start":"2020-05-29","date_end":"2023-01-31"}],"timeframe_hints":[]}]},"7794":{"lat":52.4517815,"lon":13.4510988,"location_name":"BENN-Nachbarschaftsb\u00fcro Britz","closed_days":["1","5","6","7"],"address":{"street":"Hanne N\u00fcte 1","city":"Berlin-Britz","zip":"12359"},"items":[{"id":7793,"name":"Britzer Flitzer","short_desc":"PedalPower Berliner Lastenrad ohne Kinderbank","link":"http:\/\/localhost\/cb-items\/britzer-flitzer\/","thumbnail":"http:\/\/localhost\/wp-content\/uploads\/2020\/05\/Britzer-Flitzer-150x150.jpg","status":"publish","terms":[37,11,90,20,165,158,27,72,59],"timeframes":[{"date_start":"2020-06-02","date_end":"2023-01-31"}],"timeframe_hints":[]}]},"7938":{"lat":52.4624392,"lon":13.5131235,"location_name":"WERK116","closed_days":["7"],"address":{"street":"Wilhelminenhofstr. 88","city":"Berlin-OSW","zip":"12459"},"items":[{"id":5042,"name":"OSWald","short_desc":"Bakfiets CargoBike Classic Long mit Kinderbank","link":"http:\/\/localhost\/cb-items\/oswald\/","thumbnail":"http:\/\/localhost\/wp-content\/uploads\/2019\/09\/OSWald-1-150x150.jpg","status":"publish","terms":[71,15,96,20,111,132,18,27,114],"timeframes":[{"date_start":"2020-06-08","date_end":"2023-01-31"}],"timeframe_hints":[]}]},"7945":{"lat":52.4565861,"lon":13.3209654,"location_name":"Vattenfall Store Steglitz","closed_days":["7"],"address":{"street":"Albrechtstr. 1","city":"Berlin-Steglitz","zip":"12165"},"items":[{"id":7943,"name":"Lotta","short_desc":"Bakfiets CargoBike Classic Long mit 1 Kinderbank","link":"http:\/\/localhost\/cb-items\/lotta\/","thumbnail":"http:\/\/localhost\/wp-content\/uploads\/2020\/06\/Lotta-150x150.jpg","status":"publish","terms":[71,15,20,159,134,18,27,59,77],"timeframes":[{"date_start":"2020-06-11","date_end":"2023-01-31"}],"timeframe_hints":[]}]},"7947":{"lat":52.4982334,"lon":13.5047293,"location_name":"Jugendverkehrsschule L'berg Baikalstr.","closed_days":["6","7"],"address":{"street":"Baikalstr. 4","city":"Berlin-Friedrichsfelde","zip":"10319"},"items":[{"id":7944,"name":"Sabrina","short_desc":"Bakfiets CargoBike Classic Long mit 1 Kinderbank","link":"http:\/\/localhost\/cb-items\/sabrina\/","thumbnail":"http:\/\/localhost\/wp-content\/uploads\/2020\/06\/Sabrina-150x150.jpg","status":"publish","terms":[71,15,53,162,132,18,27,48,60],"timeframes":[{"date_start":"2020-06-11","date_end":"2023-01-31"}],"timeframe_hints":[]}]},"8099":{"lat":52.45889902081046,"lon":13.526173532009127,"location_name":"Gastro-Norm","closed_days":["6","7"],"address":{"street":"Wilhelminenhofstr. 53","city":"Berlin-OSW","zip":"12459"},"items":[{"id":4377,"name":"Wilma","short_desc":"2r\u00e4driges DOUZE G4 V2 Urban mit Deckel (ohne Kinderbank)","link":"http:\/\/localhost\/cb-items\/wilma\/","thumbnail":"http:\/\/localhost\/wp-content\/uploads\/2019\/07\/Wilma-1-150x150.jpg","status":"publish","terms":[15,90,75,20,111,132,91,27,73,114],"timeframes":[{"date_start":"2020-07-06","date_end":"2023-01-31"}],"timeframe_hints":[]}]},"8103":{"lat":52.4457888,"lon":13.5787879,"location_name":"Mittelpunktbibliothek K\u00f6penick","closed_days":["7"],"address":{"street":"Alter Markt 2","city":"Berlin-K\u00f6penick","zip":"12555"},"items":[{"id":8101,"name":"Goethe","short_desc":"Bakfiets CargoTrike Classic Wide mit 2 Kinderb\u00e4nken","link":"http:\/\/localhost\/cb-items\/goethe\/","thumbnail":"http:\/\/localhost\/wp-content\/uploads\/2020\/06\/Goethe-150x150.jpg","status":"publish","terms":[71,11,53,111,132,18,27,114,128],"timeframes":[{"date_start":"2020-06-25","date_end":"2023-01-31"}],"timeframe_hints":[]}]},"8102":{"lat":52.4551777,"lon":13.582845419277705,"location_name":"Haus der Jugend K\u00f6penick","closed_days":["5","6","7"],"address":{"street":"Seelenbinderstr. 54","city":"Berlin-K\u00f6penick","zip":"12555"},"items":[{"id":8100,"name":"Volxfahrrad","short_desc":"Bakfiets CargoTrike Classic Wide mit 2 Kinderb\u00e4nken","link":"http:\/\/localhost\/cb-items\/volxfahrrad\/","thumbnail":"http:\/\/localhost\/wp-content\/uploads\/2020\/06\/Volxfahrrad-150x150.jpg","status":"publish","terms":[71,11,53,111,132,18,27,114,128],"timeframes":[{"date_start":"2020-06-25","date_end":"2023-01-31"}],"timeframe_hints":[]}]},"8123":{"lat":52.5892836,"lon":13.2930869,"location_name":"Fernsehhaus Gaedke","closed_days":["7"],"address":{"street":"Ziekowstr. 114","city":"Berlin-Tegel","zip":"13509"},"items":[{"id":8119,"name":"Kiezkutsche","short_desc":"Bakfiets E-CargoTrike Classic Wide mit 2 Kinderb\u00e4nken","link":"http:\/\/localhost\/cb-items\/kiezkutsche\/","thumbnail":"http:\/\/localhost\/wp-content\/uploads\/2020\/07\/Kiezkutsche-150x150.jpg","status":"publish","terms":[71,11,75,20,169,152,18,27,61,138],"timeframes":[{"date_start":"2020-07-07","date_end":"2023-01-31"}],"timeframe_hints":[]}]},"8122":{"lat":52.4209054,"lon":13.587449,"location_name":"KIEZKLUB Haus der Begegnung","closed_days":["6","7"],"address":{"street":"Wendenschlo\u00dfstr. 404","city":"Berlin-Wendenschlo\u00df","zip":"12557"},"items":[{"id":8118,"name":"Felix","short_desc":"Bakfiets CargoTrike Classic Wide mit 2 Kinderb\u00e4nken","link":"http:\/\/localhost\/cb-items\/felix\/","thumbnail":"http:\/\/localhost\/wp-content\/uploads\/2020\/06\/Felix-150x150.jpg","status":"publish","terms":[71,11,53,111,132,18,27,114,128],"timeframes":[{"date_start":"2020-07-01","date_end":"2023-01-31"}],"timeframe_hints":[]}]},"8121":{"lat":52.40163009940007,"lon":13.57102292643605,"location_name":"KIEZKLUB Bohnsdorf","closed_days":["6","7"],"address":{"street":"Dahmestr. 33","city":"Berlin-Bohnsdorf","zip":"12526"},"items":[{"id":8117,"name":"Otti","short_desc":"Bakfiets CargoBike Classic Long mit 1 Kinderbank","link":"http:\/\/localhost\/cb-items\/otti\/","thumbnail":"http:\/\/localhost\/wp-content\/uploads\/2020\/07\/Otti-150x150.jpg","status":"publish","terms":[71,15,53,111,132,18,27,114,128],"timeframes":[{"date_start":"2020-07-10","date_end":"2023-01-31"}],"timeframe_hints":[]}]},"8120":{"lat":52.428712,"lon":13.7311293,"location_name":"KIEZKLUB Rahnsdorf","closed_days":["6","7"],"address":{"street":"F\u00fcrstenwalder Allee 362","city":"Berlin-Rahnsdorf","zip":"12589"},"items":[{"id":8116,"name":"Paulchen","short_desc":"Bakfiets CargoBike Classic Long mit 1 Kinderbank","link":"http:\/\/localhost\/cb-items\/paulchen\/","thumbnail":"http:\/\/localhost\/wp-content\/uploads\/2020\/06\/Paulchen-150x150.jpg","status":"publish","terms":[71,15,53,111,132,18,27,114,128],"timeframes":[{"date_start":"2020-07-15","date_end":"2023-01-31"}],"timeframe_hints":[]}]},"8427":{"lat":52.46630527856434,"lon":13.330506385027588,"location_name":"LIFE e.V.","closed_days":["1","3","5","6","7"],"address":{"street":"Rheinstr. 45, 1. Hof, Aufgang C (nicht Aufgang 2!), 3. OG, (barrierefreier Zugang mittels Aufzug)","city":"Berlin-Friedenau","zip":"12161"},"items":[{"id":8426,"name":"Mileva","short_desc":"Christiania Bike Light mit 1 Kinderbank","link":"http:\/\/localhost\/cb-items\/mileva\/","thumbnail":"http:\/\/localhost\/wp-content\/uploads\/2020\/08\/Mileva-150x150.jpg","status":"publish","terms":[11,97,20,161,134,18,27,26,149,59],"timeframes":[{"date_start":"2020-08-19","date_end":"2023-01-31"}],"timeframe_hints":[]}]},"8778":{"lat":52.488387599999996,"lon":13.34607155633497,"location_name":"DIE WEISSE ROSE Kulturcentrum","closed_days":["1","6","7"],"address":{"street":"Martin-Luther-Stra\u00dfe 77","city":"Berlin-Sch\u00f6neberg","zip":"10825"},"items":[{"id":7571,"name":"Weisse Rose","short_desc":"Christiania Bike Light mit 2 Kinderb\u00e4nken","link":"http:\/\/localhost\/cb-items\/weisse-rose\/","thumbnail":"http:\/\/localhost\/wp-content\/uploads\/2020\/09\/Weisse-Rose-150x150.jpg","status":"publish","terms":[11,97,53,161,158,18,27,110,57],"timeframes":[{"date_start":"2020-10-05","date_end":"2023-01-31"}],"timeframe_hints":[]}]},"8776":{"lat":52.43920068123411,"lon":13.386004129528645,"location_name":"Jugendverkehrsschule Tempelhof","closed_days":["6","7"],"address":{"street":"Alt-Mariendorf 43","city":"Berlin-Mariendorf","zip":"12107"},"items":[{"id":7569,"name":"Muli 1","short_desc":"Bakfiets CargoBike Classic Long mit 1 Kinderbank","link":"http:\/\/localhost\/cb-items\/muli-1\/","thumbnail":"http:\/\/localhost\/wp-content\/uploads\/2020\/09\/Muli-1-150x150.jpg","status":"publish","terms":[71,15,53,161,134,18,27,59,110],"timeframes":[{"date_start":"2020-10-09","date_end":"2023-01-31"}],"timeframe_hints":[]}]},"8777":{"lat":52.39223615,"lon":13.410556557372836,"location_name":"Jugendcaf\u00e9 am Dorfteich","closed_days":["1","5","6"],"address":{"street":"Alt-Lichtenrade 103","city":"Berlin-Lichtenrade","zip":"12309"},"items":[{"id":7570,"name":"LiBike","short_desc":"Bakfiets CargoBike Classic Long mit 1 Kinderbank","link":"http:\/\/localhost\/cb-items\/libike\/","thumbnail":"http:\/\/localhost\/wp-content\/uploads\/2020\/04\/Libike-1-150x150.jpg","status":"publish","terms":[71,15,53,161,134,18,27,88,59,110],"timeframes":[{"date_start":"2020-10-06","date_end":"2023-01-31"}],"timeframe_hints":[]}]},"8873":{"lat":52.46519465,"lon":13.715913249880616,"location_name":"Kinder- und Jugendzentrum Sch\u00f6neiche","closed_days":["6","7"],"address":{"street":"Prager Str. 23","city":"Sch\u00f6neiche","zip":"15566"},"items":[{"id":8871,"name":"T\u00e4ve","short_desc":"Bakfiets CargoBike Classic Long mit 1 Kinderbank","link":"http:\/\/localhost\/cb-items\/taeve\/","thumbnail":"http:\/\/localhost\/wp-content\/uploads\/2020\/10\/Taeve-150x150.jpg","status":"publish","terms":[71,177,15,174,20,157,153,18,27,135,60],"timeframes":[{"date_start":"2020-10-26","date_end":"2023-01-31"}],"timeframe_hints":[]}]},"8874":{"lat":52.4807691,"lon":13.694813060263659,"location_name":"Kulturgiesserei Sch\u00f6neiche","closed_days":["6","7"],"address":{"street":"An der Reihe 5","city":"Sch\u00f6neiche","zip":"15566"},"items":[{"id":8872,"name":"KuGi","short_desc":"Bakfiets CargoTrike Classic Wide mit 2 Kinderb\u00e4nken","link":"http:\/\/localhost\/cb-items\/kugi\/","thumbnail":"http:\/\/localhost\/wp-content\/uploads\/2020\/10\/KuGi-150x150.jpg","status":"publish","terms":[71,177,11,174,20,157,153,18,27,135,60],"timeframes":[{"date_start":"2020-10-26","date_end":"2023-01-31"}],"timeframe_hints":[]}]},"9686":{"lat":52.443532000000005,"lon":13.502268831854837,"location_name":"KIEZKLUB Johannisthal","closed_days":["6","7"],"address":{"street":"Sterndamm 102","city":"Berlin-Johannisthal","zip":"12487"},"items":[{"id":8914,"name":"Johannes","short_desc":"Bakfiets CargoBike Classic Long mit 1 Kinderbank","link":"http:\/\/localhost\/cb-items\/johannes\/","thumbnail":"http:\/\/localhost\/wp-content\/uploads\/2020\/12\/Johannes-150x150.jpg","status":"publish","terms":[71,15,53,111,132,18,27,114,128],"timeframes":[{"date_start":"2020-12-14","date_end":"2023-01-31"}],"timeframe_hints":[]}]},"9409":{"lat":52.488711,"lon":13.4506396,"location_name":"KIEZKLUB Gerard Philipe","closed_days":["6","7"],"address":{"street":"Karl-Kunger-Stra\u00dfe 30","city":"Berlin-Alt-Treptow","zip":"12435"},"items":[{"id":8915,"name":"Gerard","short_desc":"Bakfiets CargoBike Classic Long mit 1 Kinderbank","link":"http:\/\/localhost\/cb-items\/gerard\/","thumbnail":"http:\/\/localhost\/wp-content\/uploads\/2020\/11\/Gerard-150x150.jpg","status":"publish","terms":[71,15,53,111,132,18,27,128,57],"timeframes":[{"date_start":"2020-11-26","date_end":"2023-01-31"}],"timeframe_hints":[]}]},"10326":{"lat":52.40302762811042,"lon":13.526176658537523,"location_name":"Kiezladen der M\u00f6glichkeiten WAMA","closed_days":["6","7"],"address":{"street":"Ortolfstr. 206 B","city":"Berlin-Altglienicke","zip":"12524"},"items":[{"id":8916,"name":"Kosmos-Blitz","short_desc":"Bakfiets CargoBike Classic Long mit 1 Kinderbank","link":"http:\/\/localhost\/cb-items\/kosmos-blitz\/","thumbnail":"http:\/\/localhost\/wp-content\/uploads\/2020\/10\/Kosmos-Blitz-150x150.jpg","status":"publish","terms":[71,15,53,111,132,18,27,88,114,128],"timeframes":[{"date_start":"2021-03-08","date_end":"2023-01-31"}],"timeframe_hints":[]}]},"11664":{"lat":52.4680112213899,"lon":13.484033253873422,"location_name":"KIEZKLUB Treptow-Kolleg","closed_days":["6","7"],"address":{"street":"Kiefholzstr. 274","city":"Berlin-Baumschulenweg","zip":"12437"},"items":[{"id":8917,"name":"Speedy","short_desc":"Bakfiets CargoBike Classic Long mit 1 Kinderbank","link":"http:\/\/localhost\/cb-items\/speedy\/","thumbnail":"http:\/\/localhost\/wp-content\/uploads\/2020\/10\/Speedy-150x150.jpg","status":"publish","terms":[71,15,53,111,132,18,27,114,128],"timeframes":[{"date_start":"2021-05-31","date_end":"2023-01-31"}],"timeframe_hints":[]}]},"10228":{"lat":52.4019503,"lon":13.544068,"location_name":"Kinder- und Jugendtreff Fairness","closed_days":["1","6","7"],"address":{"street":"Ehrenfelder Str. 25","city":"Berlin-Altglienicke","zip":"12524"},"items":[{"id":8918,"name":"Fairnessa","short_desc":"Bakfiets CargoTrike Classic Wide mit 2 Kinderb\u00e4nken","link":"http:\/\/localhost\/cb-items\/fairnessa\/","thumbnail":"http:\/\/localhost\/wp-content\/uploads\/2021\/05\/Fairnessa-150x150.jpg","status":"publish","terms":[71,11,53,111,132,18,27,88,114,128],"timeframes":[{"date_start":"2021-03-16","date_end":"2023-01-31"}],"timeframe_hints":[]}]},"9183":{"lat":52.5482114,"lon":13.4526904,"location_name":"Familienzentrum Wei\u00dfensee","closed_days":["5","6","7"],"address":{"street":"Mahlerstr. 4","city":"Berlin-Wei\u00dfensee","zip":"13088"},"items":[{"id":3153,"name":"Paulin","short_desc":"Bakfiets Troy 7-Gang Elektro mit 2 Kinderb\u00e4nken","link":"http:\/\/localhost\/cb-items\/paulin\/","thumbnail":"http:\/\/localhost\/wp-content\/uploads\/2019\/01\/Paulin-1-150x150.jpg","status":"publish","terms":[71,11,75,20,168,152,18,27,61,74,60,149],"timeframes":[{"date_start":"2020-11-02","date_end":"2023-01-31"}],"timeframe_hints":[]}]},"9182":{"lat":52.4968743,"lon":13.3639711,"location_name":"Nachbarschaftszentrum Steinmetzstra\u00dfe","closed_days":["6","7"],"address":{"street":"Steinmetzstr. 68","city":"Berlin-Sch\u00f6neberg","zip":"10783"},"items":[{"id":7568,"name":"Kufi","short_desc":"Bakfiets CargoBike Classic Long mit 1 Kinderbank","link":"http:\/\/localhost\/cb-items\/kufi\/","thumbnail":"http:\/\/localhost\/wp-content\/uploads\/2020\/07\/Kufi-150x150.jpg","status":"publish","terms":[71,15,53,161,158,18,27,110,57],"timeframes":[{"date_start":"2020-11-06","date_end":"2023-01-31"}],"timeframe_hints":[]}]},"9407":{"lat":52.5665825,"lon":13.5045081,"location_name":"Selbsthilfekontaktstelle Lichtenberg - Horizont Hohensch\u00f6nhausen -","closed_days":["1","5","6","7"],"address":{"street":"Ahrenshooper Str. 5","city":"Berlin-Neu-HSH","zip":"13051"},"items":[{"id":9405,"name":"Horizont","short_desc":"Babboe Transporter ohne Kindersitzbank","link":"http:\/\/localhost\/cb-items\/horizont\/","thumbnail":"http:\/\/localhost\/wp-content\/uploads\/2020\/11\/Horizont-150x150.jpg","status":"publish","terms":[130,11,90,53,162,152,27,48,61,60,73],"timeframes":[{"date_start":"2021-04-13","date_end":"2023-01-31"}],"timeframe_hints":[]}]},"9497":{"lat":52.6694643,"lon":13.2864549,"location_name":"Sankt Hubertus Apotheke","closed_days":["7"],"address":{"street":"Sch\u00f6nflie\u00dfer Str. 16","city":"Hohen Neuendorf","zip":"16540"},"items":[{"id":9495,"name":"Hubert","short_desc":"Bakfiets CargoBike Classic Long mit 1 Kinderbank","link":"http:\/\/localhost\/cb-items\/hubert\/","thumbnail":"http:\/\/localhost\/wp-content\/uploads\/2020\/11\/Hubert-150x150.jpg","status":"publish","terms":[25,71,175,15,174,20,157,152,18,27,61],"timeframes":[{"date_start":"2020-11-23","date_end":"2023-01-31"}],"timeframe_hints":[]}]},"9499":{"lat":52.5583852,"lon":13.3391068,"location_name":"Centre Fran\u00e7ais de Berlin","closed_days":["6","7"],"address":{"street":"M\u00fcllerstr. 74","city":"Berlin-Wedding","zip":"13349"},"items":[{"id":9498,"name":"Amelie","short_desc":"Bakfiets CargoBike Classic Long mit 1 Kinderbank","link":"http:\/\/localhost\/cb-items\/amelie\/","thumbnail":"http:\/\/localhost\/wp-content\/uploads\/2020\/12\/Amelie-150x150.jpg","status":"publish","terms":[71,15,156,20,167,152,117,18,27,61],"timeframes":[{"date_start":"2021-01-12","date_end":"2023-01-31"}],"timeframe_hints":[]}]},"9751":{"lat":52.4793629,"lon":13.3501922,"location_name":"Kita Ebersstra\u00dfe","closed_days":["6","7"],"address":{"street":"Ebersstr. 68","city":"Berlin-Sch\u00f6neberg","zip":"10827"},"items":[{"id":9750,"name":"Georg","short_desc":"Bakfiets CargoBike Classic Long mit 1 Kinderbank","link":"http:\/\/localhost\/cb-items\/georg\/","thumbnail":"http:\/\/localhost\/wp-content\/uploads\/2020\/12\/Georg-150x150.jpg","status":"publish","terms":[71,15,20,161,158,18,27,26,57],"timeframes":[{"date_start":"2020-12-18","date_end":"2023-01-31"}],"timeframe_hints":[]}]},"9912":{"lat":52.61385947191844,"lon":13.245402394300683,"location_name":"denn\u2018s Biomarkt Heiligensee","closed_days":["7"],"address":{"street":"Ruppiner Chaussee 217-233","city":"Berlin-Heiligensee","zip":"13503"},"items":[{"id":9911,"name":"Ruthje","short_desc":"Bakfiets CargoBike Classic Long mit 1 Kinderbank","link":"http:\/\/localhost\/cb-items\/ruthje\/","thumbnail":"http:\/\/localhost\/wp-content\/uploads\/2021\/03\/Ruthje-150x150.jpg","status":"publish","terms":[71,15,24,20,169,152,18,27,61],"timeframes":[{"date_start":"2020-12-14","date_end":"2023-01-31"}],"timeframe_hints":[]}]},"9523":{"lat":52.5454184,"lon":13.5002044,"location_name":"Familienb\u00fcro Lichtenberg","closed_days":["6","7"],"address":{"street":"Gro\u00dfe-Leege-Str. 103","city":"Berlin-Alt-HSH","zip":"13055"},"items":[{"id":2330,"name":"Zoe","short_desc":" Bakfiets CargoBike Classic Long mit Kinderbank","link":"http:\/\/localhost\/cb-items\/zoe\/","thumbnail":"http:\/\/localhost\/wp-content\/uploads\/2018\/10\/Zoe-150x150.jpg","status":"publish","terms":[71,15,53,162,132,18,27,48,60],"timeframes":[{"date_start":"2021-03-01","date_end":"2023-01-31"}],"timeframe_hints":[]}]},"10208":{"lat":52.5177263,"lon":13.2630372,"location_name":"Ev. Kirchengemeinde Neu-Westend","closed_days":["1","5","6","7"],"address":{"street":"Eichenallee 47","city":"Berlin-Westend","zip":"14050"},"items":[{"id":10192,"name":"Radalbert","short_desc":"Bakfiets CargoBike Classic Long mit 1 Kinderbank","link":"http:\/\/localhost\/cb-items\/radalbert\/","thumbnail":"http:\/\/localhost\/wp-content\/uploads\/2021\/01\/Radalbert-150x150.jpg","status":"publish","terms":[71,15,170,160,53,158,18,27,58],"timeframes":[{"date_start":"2021-04-27","date_end":"2023-01-31"}],"timeframe_hints":[]}]},"10213":{"lat":52.48227057809173,"lon":13.28391913987646,"location_name":"DRK S\u00fcdwest gGmbH","closed_days":["1","7"],"address":{"street":"Pl\u00f6ner Str. 4-18","city":"Berlin-Schmargendorf","zip":"14193"},"items":[{"id":10193,"name":"Pl\u00f6ner Bike","short_desc":"Bakfiets CargoBike Classic Long mit 1 Kinderbank","link":"http:\/\/localhost\/cb-items\/ploener-bike\/","thumbnail":"http:\/\/localhost\/wp-content\/uploads\/2021\/01\/Ploener-Bike-150x150.jpg","status":"publish","terms":[71,15,170,160,53,158,18,27,88,59,58],"timeframes":[{"date_start":"2021-03-02","date_end":"2023-01-31"}],"timeframe_hints":[]}]},"10217":{"lat":52.5063772,"lon":13.3151651,"location_name":"Radkunst Caf\u00e9","closed_days":["1","7"],"address":{"street":"Kantstr. 36","city":"Berlin-Charlottenburg","zip":"10625"},"items":[{"id":10194,"name":"Josch","short_desc":"Bakfiets CargoBike Classic Long mit 1 Kinderbank","link":"http:\/\/localhost\/cb-items\/josch\/","thumbnail":"http:\/\/localhost\/wp-content\/uploads\/2021\/01\/Josch-150x150.jpg","status":"publish","terms":[71,15,170,160,53,158,18,27,57],"timeframes":[{"date_start":"2021-04-23","date_end":"2023-01-31"}],"timeframe_hints":[]}]},"10205":{"lat":52.5375039,"lon":13.2871861,"location_name":"Stadtteilzentrum Charlottenburg Nord","closed_days":["6","7"],"address":{"street":"Halemweg 18","city":"Berlin-Charl.burg-Nord","zip":"13627"},"items":[{"id":10195,"name":"Lottchen","short_desc":"Bakfiets CargoTrike Classic Wide mit 2 Kinderb\u00e4nken","link":"http:\/\/localhost\/cb-items\/lottchen\/","thumbnail":"http:\/\/localhost\/wp-content\/uploads\/2021\/02\/Lottchen-150x150.jpg","status":"publish","terms":[71,11,170,160,53,158,18,27,88,58],"timeframes":[{"date_start":"2021-04-22","date_end":"2023-01-31"}],"timeframe_hints":[]}]},"10215":{"lat":52.49864865,"lon":13.329879262716382,"location_name":"Cafeteria Joseph\u2018s in der UdK Berlin","closed_days":["6","7"],"address":{"street":"Bundesallee 1-12","city":"Berlin-Wilmersdorf","zip":"10719"},"items":[{"id":10196,"name":"Hermann","short_desc":"Bakfiets CargoTrike Classic Wide mit 2 Kinderb\u00e4nken","link":"http:\/\/localhost\/cb-items\/hermann\/","thumbnail":"http:\/\/localhost\/wp-content\/uploads\/2021\/01\/Hermann-150x150.jpg","status":"publish","terms":[71,11,170,160,53,158,18,27,88,57],"timeframes":[{"date_start":"2021-04-26","date_end":"2023-01-31"}],"timeframe_hints":[]}]},"10216":{"lat":52.4840020368214,"lon":13.324131584689345,"location_name":"nachbarschafft e.V.","closed_days":["7"],"address":{"street":"Stra\u00dfe am Schoelerpark 37","city":"Berlin-Wilmersdorf","zip":"10715"},"items":[{"id":10197,"name":"Hermine","short_desc":"Bakfiets CargoTrike Classic Wide mit 2 Kinderb\u00e4nken","link":"http:\/\/localhost\/cb-items\/hermine\/","thumbnail":"http:\/\/localhost\/wp-content\/uploads\/2021\/01\/Hermine-150x150.jpg","status":"publish","terms":[71,11,170,160,53,158,18,27,57],"timeframes":[{"date_start":"2021-06-01","date_end":"2023-01-31"}],"timeframe_hints":[]}]},"10218":{"lat":52.51623385,"lon":13.29805775336769,"location_name":"Museum Charlottenburg-Wilmersdorf","closed_days":["1"],"address":{"street":"Schlo\u00dfstr. 55","city":"Berlin-Charlottenburg","zip":"14059"},"items":[{"id":10198,"name":"Oppi","short_desc":"Bakfiets CargoTrike Classic Wide mit 2 Kinderb\u00e4nken","link":"http:\/\/localhost\/cb-items\/oppi\/","thumbnail":"http:\/\/localhost\/wp-content\/uploads\/2021\/01\/Oppi-150x150.jpg","status":"publish","terms":[71,11,170,160,53,158,18,27,57],"timeframes":[{"date_start":"2021-05-25","date_end":"2023-01-31"}],"timeframe_hints":[]}]},"10206":{"lat":52.522594,"lon":13.3012958,"location_name":"DorfwerkStadt e.V.","closed_days":["6","7"],"address":{"street":"Mierendorffstr. 6","city":"Berlin-Charlottenburg","zip":"10589"},"items":[{"id":10199,"name":"Carlo","short_desc":"Bakfiets E-CargoBike Classic Long mit 1 Kinderbank","link":"http:\/\/localhost\/cb-items\/carlo\/","thumbnail":"http:\/\/localhost\/wp-content\/uploads\/2021\/01\/Carlo-150x150.jpg","status":"publish","terms":[71,15,170,75,160,53,158,18,27,57],"timeframes":[{"date_start":"2021-03-29","date_end":"2023-01-31"}],"timeframe_hints":[]},{"id":10550,"name":"Charlotte","short_desc":"Babboe Big E-Power mit 2 Kinderb\u00e4nken","link":"http:\/\/localhost\/cb-items\/charlotte\/","thumbnail":"http:\/\/localhost\/wp-content\/uploads\/2021\/03\/Charlotte-150x150.jpg","status":"publish","terms":[130,11,170,75,160,53,158,18,27,73,57],"timeframes":[{"date_start":"2021-03-29","date_end":"2023-01-31"}],"timeframe_hints":[]}]},"10210":{"lat":52.50497504160396,"lon":13.298676628188627,"location_name":"Kostbar","closed_days":["6","7"],"address":{"street":"Leonhardtstr. 2","city":"Berlin-Charlottenburg","zip":"14057"},"items":[{"id":10201,"name":"Knorke","short_desc":"Bakfiets E-CargoBike Classic Long mit 1 Kinderbank","link":"http:\/\/localhost\/cb-items\/knorke\/","thumbnail":"http:\/\/localhost\/wp-content\/uploads\/2021\/02\/Knorke-150x150.jpg","status":"publish","terms":[71,15,170,75,160,53,158,18,27,57],"timeframes":[{"date_start":"2021-06-17","date_end":"2023-01-31"}],"timeframe_hints":[]}]},"5306":{"lat":52.49282886373802,"lon":13.318669639517118,"location_name":"JugendTechnikSchule City-West (tjfbg) gGmbH","closed_days":["6","7"],"address":{"street":"Emser Str. 52","city":"Berlin-Wilmersdorf","zip":"10719"},"items":[{"id":10202,"name":"Kranz-Pirat","short_desc":"Bakfiets E-CargoTrike Classic Wide mit 2 Kinderb\u00e4nken","link":"http:\/\/localhost\/cb-items\/kranz-pirat\/","thumbnail":"http:\/\/localhost\/wp-content\/uploads\/2021\/01\/KranzPirat-150x150.jpg","status":"publish","terms":[71,11,170,75,160,53,158,18,27,88,57],"timeframes":[{"date_start":"2021-04-19","date_end":"2023-01-31"}],"timeframe_hints":[]},{"id":5297,"name":"Nele","short_desc":"Dreirad mit Kinderbank","link":"http:\/\/localhost\/cb-items\/nele\/","thumbnail":"http:\/\/localhost\/wp-content\/uploads\/2019\/10\/Nele-150x150.jpg","status":"publish","terms":[11,160,20,158,18,94,27,26,73,57],"timeframes":[{"date_start":"2021-03-15","date_end":"2023-01-31"}],"timeframe_hints":[]}]},"10278":{"lat":52.5471405,"lon":13.2006325,"location_name":"Spandauer Jugend e.V.","closed_days":["5","6","7"],"address":{"street":"Kleine Mittelstr. 9","city":"Berlin-Spandau","zip":"13585"},"items":[{"id":2341,"name":"Radewanne","short_desc":" Bakfiets CargoBike Classic Long mit Kinderbank","link":"http:\/\/localhost\/cb-items\/radewanne\/","thumbnail":"http:\/\/localhost\/wp-content\/uploads\/2018\/10\/Radewanne-150x150.jpg","status":"publish","terms":[71,15,53,163,158,18,27,49,58],"timeframes":[{"date_start":"2021-04-12","date_end":"2023-01-31"}],"timeframe_hints":[]}]},"10547":{"lat":52.5517155,"lon":13.4743317,"location_name":"Familienzentrum Hand in Hand","closed_days":["6","7"],"address":{"street":"Else-Jahn-Str. 41","city":"Berlin-Wei\u00dfensee","zip":"13088"},"items":[{"id":10546,"name":"Elsa","short_desc":"Bakfiets E-CargoTrike Classic Narrow mit 2 Kinderb\u00e4nken","link":"http:\/\/localhost\/cb-items\/elsa\/","thumbnail":"http:\/\/localhost\/wp-content\/uploads\/2021\/03\/Elsa-150x150.jpg","status":"publish","terms":[71,37,11,75,20,168,152,18,27,61,60],"timeframes":[{"date_start":"2021-03-15","date_end":"2023-01-31"}],"timeframe_hints":[]}]},"10579":{"lat":52.505703,"lon":13.5080123,"location_name":"AWO Margaretentreff","closed_days":["3","5","6","7"],"address":{"street":"Zachertstr. 52","city":"Berlin-Friedrichsfelde","zip":"10315"},"items":[{"id":10580,"name":"Gretchen","short_desc":"Bakfiets CargoBike Classic Long mit 1 Kinderbank","link":"http:\/\/localhost\/cb-items\/gretchen\/","thumbnail":"http:\/\/localhost\/wp-content\/uploads\/2021\/03\/Gretchen-150x150.jpg","status":"publish","terms":[71,15,53,162,132,18,27,48,60],"timeframes":[{"date_start":"2021-03-25","date_end":"2023-01-31"}],"timeframe_hints":[]}]},"10956":{"lat":52.5361334,"lon":13.2013864,"location_name":"Bezirkszentralbibliothek Spandau","closed_days":["7"],"address":{"street":"Carl-Schurz-Str. 13","city":"Berlin-Spandau","zip":"13597"},"items":[{"id":2344,"name":"Rosi","short_desc":" Bakfiets CargoBike Classic Long mit Kinderbank","link":"http:\/\/localhost\/cb-items\/rosi\/","thumbnail":"http:\/\/localhost\/wp-content\/uploads\/2018\/10\/Rosi-150x150.jpg","status":"publish","terms":[71,15,53,163,158,18,27,49,58],"timeframes":[{"date_start":"2021-04-21","date_end":"2023-01-31"}],"timeframe_hints":[]}]},"10962":{"lat":52.59140845,"lon":13.286209820648146,"location_name":"Alnatura Tegel","closed_days":["7"],"address":{"street":"Bernstorffstr. 13A","city":"Berlin-Tegel","zip":"13507"},"items":[{"id":1824,"name":"Budde","short_desc":"Bakfiets Bike long mit 1 Kinderbank","link":"http:\/\/localhost\/cb-items\/budde\/","thumbnail":"http:\/\/localhost\/wp-content\/uploads\/2018\/07\/Bettina-150x150.jpg","status":"publish","terms":[43,71,15,20,169,152,18,27,61],"timeframes":[{"date_start":"2021-04-09","date_end":"2023-01-31"}],"timeframe_hints":[]}]},"11019":{"lat":52.5520400749993,"lon":13.556238408945227,"location_name":"Garten der Begegnung","closed_days":["6","7"],"address":{"street":"Ludwig-Renn-Str. 33 B","city":"Berlin-Marzahn","zip":"12687"},"items":[{"id":11018,"name":"Ludwig","short_desc":"Bakfiets CargoTrike Classic Wide mit 2 Kinderb\u00e4nken","link":"http:\/\/localhost\/cb-items\/ludwig\/","thumbnail":"http:\/\/localhost\/wp-content\/uploads\/2021\/04\/Ludwig-150x150.jpg","status":"publish","terms":[71,37,11,20,164,132,18,27,60,88],"timeframes":[{"date_start":"2021-05-10","date_end":"2023-01-31"}],"timeframe_hints":[]}]},"11217":{"lat":52.448955,"lon":13.5079962,"location_name":"Quartiersmanagement Johannisthal","closed_days":["1","5","6","7"],"address":{"street":"Sterndamm 47","city":"Berlin-Johannisthal","zip":"12487"},"items":[{"id":5044,"name":"Johanna","short_desc":"Bakfiets CargoBike Classic Long mit Kinderbank","link":"http:\/\/localhost\/cb-items\/johanna\/","thumbnail":"http:\/\/localhost\/wp-content\/uploads\/2019\/09\/Johanna-150x150.jpg","status":"publish","terms":[71,15,96,20,111,132,18,27,114],"timeframes":[{"date_start":"2021-04-22","date_end":"2023-01-31"}],"timeframe_hints":[]}]},"11263":{"lat":52.46261864757044,"lon":13.470827424039722,"location_name":"Jugendtreff: TheCorner","closed_days":["3","6","7"],"address":{"street":"Neuk\u00f6llnische Allee 129","city":"Berlin-Neuk\u00f6lln","zip":"12057"},"items":[{"id":11242,"name":"HIGHDI","short_desc":"Bakfiets CargoBike Classic Long mit 1 Kinderbank","link":"http:\/\/localhost\/cb-items\/highdi\/","thumbnail":"http:\/\/localhost\/wp-content\/uploads\/2021\/08\/HIGHDI-150x150.jpg","status":"publish","terms":[71,15,53,165,158,18,27,172,114],"timeframes":[{"date_start":"2021-08-13","date_end":"2023-01-31"}],"timeframe_hints":[]}]},"11255":{"lat":52.480656,"lon":13.4517262,"location_name":"Quartiersmanagement-B\u00fcro Harzer Stra\u00dfe","closed_days":["6","7"],"address":{"street":"Treptower Str. 23","city":"Berlin-Neuk\u00f6lln","zip":"12059"},"items":[{"id":11244,"name":"HarzerRad","short_desc":"Bakfiets CargoTrike Classic Wide mit 2 Kinderb\u00e4nken","link":"http:\/\/localhost\/cb-items\/harzerrad\/","thumbnail":"http:\/\/localhost\/wp-content\/uploads\/2021\/04\/HarzerRad-150x150.jpg","status":"publish","terms":[71,11,53,165,158,18,27,172,57],"timeframes":[{"date_start":"2021-05-17","date_end":"2023-01-31"}],"timeframe_hints":[]}]},"11251":{"lat":52.478134,"lon":13.4321087,"location_name":"MORUS 14 e.V.","closed_days":["6","7"],"address":{"street":"Werbellinstr. 41","city":"Berlin-Neuk\u00f6lln","zip":"12053"},"items":[{"id":11240,"name":"Yalla-Bike","short_desc":"Bakfiets CargoBike Classic Long mit 1 Kinderbank","link":"http:\/\/localhost\/cb-items\/yalla-bike\/","thumbnail":"http:\/\/localhost\/wp-content\/uploads\/2021\/04\/Yalla-Bike-150x150.jpg","status":"publish","terms":[71,15,53,165,158,18,27,172,88,57],"timeframes":[{"date_start":"2021-05-10","date_end":"2023-01-31"}],"timeframe_hints":[]}]},"11248":{"lat":52.400854402768566,"lon":13.503173600894632,"location_name":"JFE BlueBox","closed_days":["1","7"],"address":{"street":"K\u00e4te-Frankenthal-Weg 12","city":"Berlin-Rudow","zip":"12355"},"items":[{"id":11238,"name":"BlueBike","short_desc":"Bakfiets CargoBike Classic Long mit 1 Kinderbank","link":"http:\/\/localhost\/cb-items\/bluebike\/","thumbnail":"http:\/\/localhost\/wp-content\/uploads\/2021\/05\/BlueBike-150x150.jpg","status":"publish","terms":[71,15,53,165,158,18,27,172,88,59],"timeframes":[{"date_start":"2021-05-25","date_end":"2023-01-31"}],"timeframe_hints":[]}]},"11686":{"lat":52.43867935,"lon":13.315320463109877,"location_name":"K\u00fcsterei Paulus-Kirchengemeinde","closed_days":["6","7"],"address":{"street":"Hindenburgdamm 101a","city":"Berlin-Lichterfelde","zip":"12203"},"items":[{"id":11685,"name":"Paulus","short_desc":"Bakfiets E-CargoBike Classic Long mit 1 Kinderbank","link":"http:\/\/localhost\/cb-items\/paulus\/","thumbnail":"http:\/\/localhost\/wp-content\/uploads\/2021\/06\/Paulus-150x150.jpg","status":"publish","terms":[71,15,75,20,159,134,18,27,186,59],"timeframes":[{"date_start":"2021-06-09","date_end":"2023-01-31"}],"timeframe_hints":[]}]},"11739":{"lat":52.49139435,"lon":13.488128322215577,"location_name":"Boulderhalle ostbloc GmbH","closed_days":[],"address":{"street":"Hauptstr. 13","city":"Berlin-Rummelsburg","zip":"10317"},"items":[{"id":11738,"name":"Roter Stern","short_desc":"Winther Wallaroo ohne Kinderbank","link":"http:\/\/localhost\/cb-items\/roter-stern\/","thumbnail":"http:\/\/localhost\/wp-content\/uploads\/2021\/06\/Roter_Stern-150x150.jpg","status":"publish","terms":[25,15,20,162,132,27,60,73],"timeframes":[{"date_start":"2021-06-07","date_end":"2023-01-31"}],"timeframe_hints":[]}]},"11832":{"lat":52.5328695,"lon":13.1805559,"location_name":"agens","closed_days":["6","7"],"address":{"street":"Altonaer Str. 107","city":"Berlin-Spandau","zip":"13581"},"items":[{"id":2339,"name":"Brummi","short_desc":" Bakfiets CargoBike Classic Long mit Kinderbank","link":"http:\/\/localhost\/cb-items\/brummi\/","thumbnail":"http:\/\/localhost\/wp-content\/uploads\/2021\/06\/Brummi-150x150.jpg","status":"publish","terms":[71,15,53,163,158,18,27,88,49,58],"timeframes":[{"date_start":"2021-06-14","date_end":"2023-01-31"}],"timeframe_hints":[]}]},"11972":{"lat":52.49801127784164,"lon":13.297853129975408,"location_name":"Vattenfall Kurf\u00fcrstendamm","closed_days":["7"],"address":{"street":"Kurf\u00fcrstendamm 143","city":"Berlin-Charlottenburg","zip":"10709"},"items":[{"id":11970,"name":"Oskar","short_desc":"Bakfiets CargoBike Classic Long mit 1 Kinderbank","link":"http:\/\/localhost\/cb-items\/oskar\/","thumbnail":"http:\/\/localhost\/wp-content\/uploads\/2021\/06\/Oskar-150x150.jpg","status":"publish","terms":[71,15,160,20,158,18,27,88,77,57],"timeframes":[{"date_start":"2021-06-21","date_end":"2023-01-31"}],"timeframe_hints":[]}]},"12079":{"lat":52.4220062,"lon":13.4571766,"location_name":"Kinder- und Jugendclub Wildh\u00fcterweg","closed_days":["6","7"],"address":{"street":"Wildh\u00fcterweg 1","city":"Berlin-Gropiusstadt","zip":"12353"},"items":[{"id":12077,"name":"Wilde Foxi","short_desc":"Bakfiets CargoTrike Classic Wide mit 2 Kinderb\u00e4nken","link":"http:\/\/localhost\/cb-items\/wilde-foxi\/","thumbnail":"http:\/\/localhost\/wp-content\/uploads\/2021\/06\/Wilde-Foxi-150x150.jpg","status":"publish","terms":[71,11,53,165,158,18,27,172,88,59],"timeframes":[{"date_start":"2021-08-09","date_end":"2023-01-31"}],"timeframe_hints":[]}]},"12342":{"lat":52.5720202,"lon":13.4378718,"location_name":"Zukunftswerkstatt Heinersdorf","closed_days":["6","7"],"address":{"street":"Romain-Rolland-Stra\u00dfe 112","city":"Berlin-Heinersdorf","zip":"13089"},"items":[{"id":12331,"name":"Heiner","short_desc":"Bakfiets CargoBike Classic Long mit 1 Kinderbank","link":"http:\/\/localhost\/cb-items\/heiner\/","thumbnail":"http:\/\/localhost\/wp-content\/uploads\/2021\/08\/Heiner-150x150.jpg","status":"publish","terms":[71,15,53,168,152,18,27,61,173],"timeframes":[{"date_start":"2021-09-27","date_end":"2023-01-31"}],"timeframe_hints":[]}]},"12339":{"lat":52.6014486,"lon":13.4311864,"location_name":"Nachbarschaftszentrum Amtshaus Buchholz","closed_days":["1","3","5","6","7"],"address":{"street":"Berliner Str. 24","city":"Berlin-Buchholz","zip":"13127"},"items":[{"id":12329,"name":"Buchholzer Packesel","short_desc":"Bakfiets CargoTrike Classic Wide mit 2 Kinderb\u00e4nken","link":"http:\/\/localhost\/cb-items\/buchholzer-packesel\/","thumbnail":"http:\/\/localhost\/wp-content\/uploads\/2021\/02\/bakfiets-wide-150x150.jpg","status":"publish","terms":[71,11,53,168,152,18,27,61,173],"timeframes":[{"date_start":"2021-09-04","date_end":"2023-01-31"}],"timeframe_hints":[]}]},"12336":{"lat":52.593079,"lon":13.45383215505115,"location_name":"Ev. Kirchengemeinde Blankenburg","closed_days":["2","4","6","7"],"address":{"street":"Alt-Blankenburg 17","city":"Berlin-Blankenburg","zip":"13129"},"items":[{"id":12327,"name":"Blanka","short_desc":"Bakfiets CargoBike Classic Long mit 1 Kinderbank","link":"http:\/\/localhost\/cb-items\/blanka\/","thumbnail":"http:\/\/localhost\/wp-content\/uploads\/2021\/08\/Blanka-150x150.jpg","status":"publish","terms":[71,15,53,168,152,18,27,61,173],"timeframes":[{"date_start":"2021-08-16","date_end":"2023-01-31"}],"timeframe_hints":[]}]},"12333":{"lat":52.569805045863504,"lon":13.399541079998018,"location_name":"Stadtteilzentrum Pankow","closed_days":["2","3","6","7"],"address":{"street":"Sch\u00f6nholzer Stra\u00dfe 10","city":"Berlin-Pankow","zip":"13187"},"items":[{"id":12325,"name":"Kiezflitzer","short_desc":"Bakfiets CargoBike Classic Long mit 1 Kinderbank","link":"http:\/\/localhost\/cb-items\/kiezflitzer\/","thumbnail":"http:\/\/localhost\/wp-content\/uploads\/2021\/08\/Kiezflitzer-150x150.jpg","status":"publish","terms":[71,15,53,168,152,18,27,61,173],"timeframes":[{"date_start":"2021-08-16","date_end":"2023-01-31"}],"timeframe_hints":[]}]},"12413":{"lat":52.595359650000006,"lon":13.373550811968995,"location_name":"KJFE Landhaus Rosenthal","closed_days":["6","7"],"address":{"street":"Hauptstr. 94","city":"Berlin-Rosenthal","zip":"13158"},"items":[{"id":12411,"name":"Landlasti","short_desc":"Bakfiets CargoBike Classic Long mit 1 Kinderbank","link":"http:\/\/localhost\/cb-items\/landlasti\/","thumbnail":"http:\/\/localhost\/wp-content\/uploads\/2021\/07\/Landlasti-150x150.jpg","status":"publish","terms":[71,15,53,168,152,18,27,61,173],"timeframes":[{"date_start":"2021-07-26","date_end":"2023-01-31"}],"timeframe_hints":[]}]},"12562":{"lat":52.5418164,"lon":13.440864,"location_name":"Heinrich-B\u00f6ll-Bibliothek","closed_days":["6","7"],"address":{"street":"Greifswalder Str. 87","city":"Berlin-PrenzlBerg","zip":"10409"},"items":[{"id":12549,"name":"Nadja","short_desc":"Bakfiets CargoTrike Classic Wide mit 2 Kinderb\u00e4nken","link":"http:\/\/localhost\/cb-items\/nadja\/","thumbnail":"http:\/\/localhost\/wp-content\/uploads\/2021\/02\/bakfiets-wide-150x150.jpg","status":"publish","terms":[71,11,53,168,152,18,27,61,173],"timeframes":[{"date_start":"2021-09-24","date_end":"2023-01-31"}],"timeframe_hints":[]}]},"12559":{"lat":52.616509,"lon":13.4918242,"location_name":"Stadtteilbibliothek Karow","closed_days":["3","6","7"],"address":{"street":"Achillesstra\u00dfe 77","city":"Berlin-Karow","zip":"13125"},"items":[{"id":12547,"name":"Caroline","short_desc":"Bakfiets CargoBike Classic Long mit 1 Kinderbank","link":"http:\/\/localhost\/cb-items\/caroline\/","thumbnail":"http:\/\/localhost\/wp-content\/uploads\/2021\/02\/bakfiets-long-150x150.jpg","status":"publish","terms":[71,15,53,168,152,18,27,61,173,88],"timeframes":[{"date_start":"2021-10-01","date_end":"2023-01-31"}],"timeframe_hints":[]}]},"6454":{"lat":52.501368,"lon":13.3645232,"location_name":"Harb GmbH","closed_days":["7"],"address":{"street":"Potsdamer Str. 93","city":"Berlin-Tiergarten","zip":"10785"},"items":[{"id":6453,"name":"Undine","short_desc":"SCO Long John ohne Kinderbank","link":"http:\/\/localhost\/cb-items\/undine\/","thumbnail":"http:\/\/localhost\/wp-content\/uploads\/2020\/02\/Undine-150x150.jpg","status":"publish","terms":[15,20,167,158,116,94,27,73,57],"timeframes":[{"date_start":"2021-09-02","date_end":"2023-01-31"}],"timeframe_hints":[]}]},"12839":{"lat":52.5703648,"lon":13.4105255,"location_name":"Janusz-Korczak-Bibliothek","closed_days":["6","7"],"address":{"street":"Berliner Stra\u00dfe 120-121","city":"Berlin-Pankow","zip":"13187"},"items":[{"id":12837,"name":"WiesoWeshalbWarum","short_desc":"Bakfiets CargoBike Classic Long mit 1 Kinderbank","link":"http:\/\/localhost\/cb-items\/wiesoweshalbwarum\/","thumbnail":"http:\/\/localhost\/wp-content\/uploads\/2021\/02\/bakfiets-long-150x150.jpg","status":"publish","terms":[71,15,53,168,152,18,27,61,173],"timeframes":[{"date_start":"2021-10-04","date_end":"2023-01-31"}],"timeframe_hints":[]}]},"12772":{"lat":52.5148305,"lon":13.4907784,"location_name":"aufatmen \u2013 Begegnungszentrum","closed_days":["5","6","7"],"address":{"street":"Schottstr. 2","city":"Berlin-Lichtenberg","zip":"10365"},"items":[{"id":12978,"name":"aufatmen","short_desc":"Pedalpower Berliner Lastenrad mit eingebauter Kinderbank","link":"http:\/\/localhost\/cb-items\/aufatmen\/","thumbnail":"http:\/\/localhost\/wp-content\/uploads\/2021\/08\/aufatmen-150x150.jpg","status":"publish","terms":[11,20,162,132,18,27,194,60,72],"timeframes":[{"date_start":"2021-09-28","date_end":"2023-01-31"}],"timeframe_hints":[]}]},"12995":{"lat":52.635680441882656,"lon":13.493528366088869,"location_name":"Stadtteilbibliothek Buch","closed_days":["6","7"],"address":{"street":"Wiltbergstra\u00dfe 19-23","city":"Berlin-Buch","zip":"13125"},"items":[{"id":13000,"name":"May","short_desc":"Bakfiets CargoBike Classic Long mit 1 Kinderbank","link":"http:\/\/localhost\/cb-items\/may\/","thumbnail":"http:\/\/localhost\/wp-content\/uploads\/2021\/02\/bakfiets-long-150x150.jpg","status":"publish","terms":[71,15,53,168,152,18,27,61,173],"timeframes":[{"date_start":"2021-09-28","date_end":"2023-01-31"}],"timeframe_hints":[]}]},"13120":{"lat":52.4386252,"lon":13.5504495,"location_name":"Katha","closed_days":["6","7"],"address":{"street":"D\u00f6rpfeldstr. 53","city":"Berlin","zip":"12489"},"items":[{"id":3455,"name":"D\u00f6rte","short_desc":"Bakfiets CargoBike Classic Long mit Kinderbank","link":"http:\/\/localhost\/cb-items\/doerte\/","thumbnail":"http:\/\/localhost\/wp-content\/uploads\/2019\/03\/Doerte-150x150.jpg","status":"publish","terms":[78,71,15,20,111,132,18,27,114],"timeframes":[{"date_start":"2021-09-13","date_end":"2023-01-31"}],"timeframe_hints":[]}]},"13166":{"lat":52.68195819417409,"lon":13.2737240560521,"location_name":"APIS PRO","closed_days":["6","7"],"address":{"street":"Wiesenstra\u00dfe 1","city":"Hohen Neuendorf","zip":"16540"},"items":[{"id":13165,"name":"Maja","short_desc":"Bakfiets E-CargoTrike Classic Wide mit 2 Kinderb\u00e4nken","link":"http:\/\/localhost\/cb-items\/maja\/","thumbnail":"http:\/\/localhost\/wp-content\/uploads\/2021\/09\/Maja-150x150.jpg","status":"publish","terms":[71,175,11,75,199,174,20,157,154,18,27,61,200],"timeframes":[{"date_start":"2021-10-01","date_end":"2023-01-31"}],"timeframe_hints":[]}]},"6056":{"lat":52.4336511,"lon":13.353565,"location_name":"LWERK FahrRADladen","closed_days":["1","7"],"address":{"street":"Kamenzer Damm 1","city":"Berlin-Lankwitz","zip":"12249"},"items":[{"id":6053,"name":"Fridoline","short_desc":"Bakfiets CargoBike Classic Long mit 1 Kinderbank","link":"http:\/\/localhost\/cb-items\/fridoline\/","thumbnail":"http:\/\/localhost\/wp-content\/uploads\/2020\/01\/Fridoline-150x150.jpg","status":"publish","terms":[71,15,53,159,134,18,27,59,104],"timeframes":[{"date_start":"2021-10-01","date_end":"2023-01-31"}],"timeframe_hints":[]}]},"6046":{"lat":52.4530271,"lon":13.2675814,"location_name":"JFE G. Marshall","closed_days":[],"address":{"street":"Marshallstr. 3","city":"Berlin-Dahlem","zip":"14169"},"items":[{"id":6055,"name":"Lanky","short_desc":"Bakfiets E-CargoBike Classic Long mit 1 Kinderbank","link":"http:\/\/localhost\/cb-items\/lanky\/","thumbnail":"http:\/\/localhost\/wp-content\/uploads\/2020\/01\/Lanky-150x150.jpg","status":"publish","terms":[71,15,75,53,159,134,18,27,59,104],"timeframes":[{"date_start":"2021-10-01","date_end":"2023-01-31"}],"timeframe_hints":[]}]},"1826":{"lat":52.4429906,"lon":13.2939454,"location_name":"Alnatura Lichterfelde-West","closed_days":["6","7"],"address":{"street":"Hans-Sachs-Stra\u00dfe 4 b-c","city":"Berlin-Lichterfelde","zip":"12205"},"items":[{"id":5288,"name":"Salomon","short_desc":"Bakfiets CargoBike Classic Long mit 1 Kinderbank","link":"http:\/\/localhost\/cb-items\/salomon\/","thumbnail":"http:\/\/localhost\/wp-content\/uploads\/2019\/09\/AlnaturaSeven-150x150.jpg","status":"publish","terms":[43,71,15,20,159,154,18,27,59],"timeframes":[{"date_start":"2021-10-11","date_end":"2023-01-31"}],"timeframe_hints":[]}]}}